[
  {
    "data": {
      "address": "6451 Mill Creek Canyon Rd, Salt Lake City, UT 84109, United States",
      "title": "Log Haven",
      "category": "New American restaurant",
      "city": "Salt Lake City",
      "google_map_link": "https://www.google.com/maps/place/Log+Haven/data=!4m7!3m6!1s0x87526144fb581109:0xc4b28478ff4aebd!8m2!3d40.6982751!4d-111.7266011!16s%2Fg%2F1tdyr875!19sChIJCRFY-0RhUocRva70j0coSww?authuser=0&hl=en&rclk=1",
      "workhours": "Tuesday, 5:30 to 9 pm; Wednesday, 5:30 to 9 pm; Thursday, 5:30 to 9 pm; Friday, 5:30 to 9 pm; Saturday, 5:30 to 9 pm; Sunday, 5:30 to 9 pm; Monday, 5:30 to 9 pm. Hide open hours for the week",
      "latitude": 40.6982751,
      "longitude": -111.7266011,
      "phone": "+1 801-272-8255",
      "avg_rating": "4.7",
      "rating_count": "1740",
      "state": "Utah",
      "website": "log-haven.com"
    },
    "errors": {}
  },
  {
    "data": {
      "address": "19 N University Ave, Provo, UT 84601, United States",
      "title": "Black Sheep Cafe",
      "category": "Native American restaurant",
      "city": "Provo",
      "google_map_link": "https://www.google.com/maps/place/Black+Sheep+Cafe/data=!4m7!3m6!1s0x874d97536d3a43e7:0xbb3b993934429c54!8m2!3d40.2342829!4d-111.6590597!16s%2Fg%2F11g_cgcyv!19sChIJ50M6bVOXTYcRVJxCNDmZO7s?authuser=0&hl=en&rclk=1",
      "workhours": "Tuesday, 11:30 am to 2:30 pm, 5 to 9 pm; Wednesday, 11:30 am to 2:30 pm, 5 to 9 pm; Thursday, 11:30 am to 2:30 pm, 5 to 9 pm; Friday, 11:30 am to 2:30 pm, 5 to 9:30 pm; Saturday, 12 to 3 pm, 5 to 9:30 pm; Sunday, Closed; Monday, 11:30 am to 2:30 pm, 5 to 9 pm. Hide open hours for the week",
      "latitude": 40.2342829,
      "longitude": -111.6590597,
      "phone": "+1 801-607-2485",
      "avg_rating": "4.5",
      "rating_count": "1637",
      "state": "Utah",
      "website": "blacksheepcafe.com"
    },
    "errors": {}
  },
  {
    "data": {
      "address": "9565 Wasatch Blvd, Sandy, UT 84092, United States",
      "title": "La Caille Restaurant",
      "category": "",
      "city": "Cottonwood Heights",
      "google_map_link": "https://www.google.com/maps/place/La+Caille+Restaurant/data=!4m7!3m6!1s0x87527cc3475aa1d7:0xf7d52f151b960c3c!8m2!3d40.5756556!4d-111.7921556!16s%2Fg%2F1v8l02dy!19sChIJ16FaR8N8UocRPAyWGxUv1fc?authuser=0&hl=en&rclk=1",
      "workhours": "",
      "latitude": 40.5756556,
      "longitude": -111.7921556,
      "phone": "+1 801-942-1751",
      "avg_rating": "4.5",
      "rating_count": "1456",
      "state": "Utah",
      "website": "lacaille.com"
    },
    "errors": {}
  },
  {
    "data": {
      "address": "8841 N Alpine Lp Rd, Sundance, UT 84604, United States",
      "title": "The Tree Room at Sundance Resort",
      "category": "American restaurant",
      "city": "Provo",
      "google_map_link": "https://www.google.com/maps/place/The+Tree+Room+at+Sundance+Resort/data=!4m7!3m6!1s0x874d8ea4b59b053b:0x47f0036377afc2d5!8m2!3d40.39227!4d-111.5786397!16s%2Fg%2F1tl0xtrk!19sChIJOwWbtaSOTYcR1cKvd2MD8Ec?authuser=0&hl=en&rclk=1",
      "workhours": "Tuesday, Closed; Wednesday, 5 to 9 pm; Thursday, 5 to 9 pm; Friday, 5 to 9 pm; Saturday, 5 to 9 pm; Sunday, Closed; Monday, Closed. Hide open hours for the week",
      "latitude": 40.39227,
      "longitude": -111.5786397,
      "phone": "+1 801-223-4200",
      "avg_rating": "4.6",
      "rating_count": "445",
      "state": "Utah",
      "website": "sundanceresort.com"
    },
    "errors": {}
  },
  {
    "data": {
      "address": "1457 E 3350 S, Salt Lake City, UT 84106, United States",
      "title": "Table X",
      "category": "American restaurant",
      "city": "Salt Lake City",
      "google_map_link": "https://www.google.com/maps/place/Table+X/data=!4m7!3m6!1s0x875261d3e4d083a5:0x7287d6f40d42e31f!8m2!3d40.6990987!4d-111.8498486!16s%2Fg%2F11cs1lfljq!19sChIJpYPQ5NNhUocRH-NCDfTWh3I?authuser=0&hl=en&rclk=1",
      "workhours": "Tuesday, Closed; Wednesday, 5 to 9 pm; Thursday, 5 to 9 pm; Friday, 5 to 9 pm; Saturday, 5 to 9 pm; Sunday, Closed; Monday, Closed. Hide open hours for the week",
      "latitude": 40.6990987,
      "longitude": -111.8498486,
      "phone": "+1 385-528-3712",
      "avg_rating": "4.6",
      "rating_count": "726",
      "state": "Utah",
      "website": "tablexrestaurant.com"
    },
    "errors": {}
  },
  {
    "data": {
      "address": "11516 District Main Dr #500, South Jordan, UT 84095, United States",
      "title": "The Wild Rose",
      "category": "Fine dining restaurant",
      "city": "South Jordan",
      "google_map_link": "https://www.google.com/maps/place/The+Wild+Rose/data=!4m7!3m6!1s0x8752859680cd0953:0xa8921434b9e37d34!8m2!3d40.542558!4d-111.980981!16s%2Fg%2F1tczqvd7!19sChIJUwnNgJaFUocRNH3juTQUkqg?authuser=0&hl=en&rclk=1",
      "workhours": "Tuesday, 5 to 9 pm; Wednesday, 5 to 9 pm; Thursday, 5 to 9 pm; Friday, 5 to 9:30 pm; Saturday, 5 to 9:30 pm; Sunday, Closed; Monday, 5 to 9 pm. Hide open hours for the week",
      "latitude": 40.542558,
      "longitude": -111.980981,
      "phone": "+1 801-790-7673",
      "avg_rating": "4.6",
      "rating_count": "447",
      "state": "Utah",
      "website": "wildrose-district.com"
    },
    "errors": {}
  },
  {
    "data": {
      "address": "20 UT-12, Boulder, UT 84716, United States",
      "title": "Hell's Backbone Grill & Farm",
      "category": "American restaurant",
      "city": "Boulder",
      "google_map_link": "https://www.google.com/maps/place/Hell%27s+Backbone+Grill+%26+Farm/data=!4m7!3m6!1s0x8735f4581f7cdeb3:0x8c2850804cb69ac6!8m2!3d37.9023971!4d-111.4238739!16s%2Fg%2F11b7_s4xzc!19sChIJs958H1j0NYcRxpq2TIBQKIw?authuser=0&hl=en&rclk=1",
      "workhours": "Tuesday, Closed; Wednesday, Closed; Thursday, 4 to 9 pm; Friday, 4 to 9 pm; Saturday, 4 to 9 pm; Sunday, 4 to 9 pm; Monday, 4 to 9 pm. Hide open hours for the week",
      "latitude": 37.9023971,
      "longitude": -111.4238739,
      "phone": "+1 435-335-7464",
      "avg_rating": "4.7",
      "rating_count": "1032",
      "state": "Utah",
      "website": "hellsbackbonegrill.com"
    },
    "errors": {}
  },
  {
    "data": {
      "address": "6263 Holladay Blvd E, Holladay, UT 84121, United States",
      "title": "Franck's Restaurant",
      "category": "Fusion restaurant",
      "city": "Cottonwood Heights",
      "google_map_link": "https://www.google.com/maps/place/Franck%27s+Restaurant/data=!4m7!3m6!1s0x875262548bcf0b75:0xec572f287c20d89c!8m2!3d40.6373949!4d-111.8116372!16s%2Fg%2F11btv6btb_!19sChIJdQvPi1RiUocRnNggfCgvV-w?authuser=0&hl=en&rclk=1",
      "workhours": "Tuesday, 5 to 9 pm; Wednesday, 5 to 9 pm; Thursday, 5 to 9 pm; Friday, 5 to 9:30 pm; Saturday, 5 to 9:30 pm; Sunday, 10:30 am to 2:30 pm, 5 to 8:30 pm; Monday, Closed. Hide open hours for the week",
      "latitude": 40.6373949,
      "longitude": -111.8116372,
      "phone": "+1 801-274-6264",
      "avg_rating": "4.7",
      "rating_count": "737",
      "state": "Utah",
      "website": "francksfood.com"
    },
    "errors": {}
  },
  {
    "data": {
      "address": "8256 S 700 E, Sandy, UT 84070, United States",
      "title": "Tiburon",
      "category": "Restaurant",
      "city": "Sandy",
      "google_map_link": "https://www.google.com/maps/place/Tiburon/data=!4m7!3m6!1s0x875288163b6c1f89:0x1897659e39fe18b4!8m2!3d40.6010641!4d-111.8725553!16s%2Fm%2F021cwp6!19sChIJiR9sOxaIUocRtBj-OZ5llxg?authuser=0&hl=en&rclk=1",
      "workhours": "Tuesday, 5 to 9 pm; Wednesday, 5 to 9 pm; Thursday, 5 to 9 pm; Friday, 5 to 9:30 pm; Saturday, 5 to 9:30 pm; Sunday, 5 to 9 pm; Monday, 5 to 9 pm. Hide open hours for the week",
      "latitude": 40.6010641,
      "longitude": -111.8725553,
      "phone": "+1 801-255-1200",
      "avg_rating": "4.7",
      "rating_count": "940",
      "state": "Utah",
      "website": "tiburonfinedining.com"
    },
    "errors": {}
  },
  {
    "data": {
      "address": "111 E Broadway #170, Salt Lake City, UT 84111, United States",
      "title": "The Copper Onion",
      "category": "American restaurant",
      "city": "Salt Lake City",
      "google_map_link": "https://www.google.com/maps/place/The+Copper+Onion/data=!4m7!3m6!1s0x8752f511e6e92fad:0x1060fd13b457b3cb!8m2!3d40.7630797!4d-111.8872299!16s%2Fg%2F1tdk5npk!19sChIJrS_p5hH1UocRy7NXtBP9YBA?authuser=0&hl=en&rclk=1",
      "workhours": "Tuesday, 11:30 am to 3 pm, 5 to 10 pm; Wednesday, 11:30 am to 3 pm, 5 to 10 pm; Thursday, 11:30 am to 3 pm, 5 to 10 pm; Friday, 11:30 am to 3 pm, 5 to 10 pm; Saturday, 10:30 am to 3 pm, 5 to 10 pm; Sunday, 10:30 am to 3 pm, 5 to 10 pm; Monday, 11:30 am to 3 pm, 5 to 10 pm. Hide open hours for the week",
      "latitude": 40.7630797,
      "longitude": -111.8872299,
      "phone": "+1 801-355-3282",
      "avg_rating": "4.4",
      "rating_count": "3427",
      "state": "Utah",
      "website": "thecopperonion.com"
    },
    "errors": {}
  },
  {
    "data": {
      "address": "368 E 100 S, Salt Lake City, UT 84111, United States",
      "title": "Oquirrh Restaurant",
      "category": "American restaurant",
      "city": "Salt Lake City",
      "google_map_link": "https://www.google.com/maps/place/Oquirrh+Restaurant/data=!4m7!3m6!1s0x8752f54b19126d1b:0x6e6c801af153fd05!8m2!3d40.7669253!4d-111.8803379!16s%2Fg%2F11h5wp825z!19sChIJG20SGUv1UocRBf1T8RqAbG4?authuser=0&hl=en&rclk=1",
      "workhours": "Tuesday, 4:30 to 10 pm; Wednesday, 4:30 to 10 pm; Thursday, 4:30 to 10 pm; Friday, 4:30 to 10 pm; Saturday, 10 am to 2 pm, 4:30 to 10 pm; Sunday, 10 am to 2 pm, 4:30 to 10 pm; Monday, 4:30 to 10 pm. Hide open hours for the week",
      "latitude": 40.7669253,
      "longitude": -111.8803379,
      "phone": "+1 801-359-0426",
      "avg_rating": "4.6",
      "rating_count": "616",
      "state": "Utah",
      "website": "oquirrhslc.com"
    },
    "errors": {}
  },
  {
    "data": {
      "address": "3003 Thanksgiving Wy, Lehi, UT 84043, United States",
      "title": "Harvest Restaurant",
      "category": "American restaurant",
      "city": "Lehi",
      "google_map_link": "https://www.google.com/maps/place/Harvest+Restaurant/data=!4m7!3m6!1s0x87528020a278ab47:0x3f60ed7a97f5ad5b!8m2!3d40.4258611!4d-111.8872389!16s%2Fg%2F11h1424w6!19sChIJR6t4oiCAUocRW631l3rtYD8?authuser=0&hl=en&rclk=1",
      "workhours": "Tuesday, 11 am to 3 pm, 5 to 9 pm; Wednesday, 11 am to 3 pm, 5 to 9 pm; Thursday, 11 am to 3 pm, 5 to 9 pm; Friday, 11 am to 3 pm, 5 to 9 pm; Saturday, 5 to 9 pm; Sunday, Closed; Monday, 11 am to 3 pm, 5 to 9 pm. Hide open hours for the week",
      "latitude": "",
      "longitude": -111.8872389,
      "phone": "+1 801-768-4990",
      "avg_rating": "4.4",
      "rating_count": "1006",
      "state": "Utah",
      "website": "thanksgivingpoint.org"
    },
    "errors": {
      "latitude": "page.waitForURL: Timeout 10000ms exceeded.\n=========================== logs ===========================\nwaiting for navigation until \"load\"\n  navigated to \"https://www.google.com/maps/place/Harvest+Restaurant/@40.4258611,-111.8872389,17z/data=!3m1!4b1!4m6!3m5!1s0x87528020a278ab47:0x3f60ed7a97f5ad5b!8m2!3d40.4258611!4d-111.8872389!16s%2Fg%2F11h1424w6?authuser=0&hl=en&entry=ttu&g_ep=EgoyMDI1MDUxMS4wIKXMDSoASAFQAw%3D%3D\"\n============================================================"
    }
  },
  {
    "data": {
      "address": "2832 E 6200 S, Salt Lake City, UT 84121, United States",
      "title": "Tuscany Restaurant",
      "category": "Fine dining restaurant",
      "city": "Holladay",
      "google_map_link": "https://www.google.com/maps/place/Tuscany+Restaurant/data=!4m7!3m6!1s0x875262549d09ed89:0x759b9b7d58f8f495!8m2!3d40.637945!4d-111.8115181!16s%2Fg%2F1w4562db!19sChIJie0JnVRiUocRlfT4WH2bm3U?authuser=0&hl=en&rclk=1",
      "workhours": "Tuesday, 5 to 9 pm; Wednesday, 5 to 9 pm; Thursday, 5 to 9 pm; Friday, 5 to 9:30 pm; Saturday, 5 to 9:30 pm; Sunday, 5 to 9 pm; Monday, 5 to 9 pm. Hide open hours for the week",
      "latitude": 40.637945,
      "longitude": -111.8115181,
      "phone": "+1 801-277-9919",
      "avg_rating": "4.5",
      "rating_count": "1395",
      "state": "Utah",
      "website": "tuscanyslc.com"
    },
    "errors": {}
  },
  {
    "data": {
      "address": "418 E 200 S, Salt Lake City, UT 84111, United States",
      "title": "HSL",
      "category": "American restaurant",
      "city": "Salt Lake City",
      "google_map_link": "https://www.google.com/maps/place/HSL/data=!4m7!3m6!1s0x8752f56d646be8bd:0x4aa5cfbbe1294105!8m2!3d40.764807!4d-111.87873!16s%2Fg%2F11cmd395yt!19sChIJvehrZG31UocRBUEp4bvPpUo?authuser=0&hl=en&rclk=1",
      "workhours": "Tuesday, 5 to 9 pm; Wednesday, 5 to 9 pm; Thursday, 5 to 9 pm; Friday, 5 to 10 pm; Saturday, 5 to 10 pm; Sunday, Closed; Monday, 5 to 9 pm. Hide open hours for the week",
      "latitude": "",
      "longitude": -111.87873,
      "phone": "+1 801-539-9999",
      "avg_rating": "4.6",
      "rating_count": "862",
      "state": "Utah",
      "website": "hslrestaurant.com"
    },
    "errors": {
      "latitude": "page.waitForURL: Timeout 10000ms exceeded.\n=========================== logs ===========================\nwaiting for navigation until \"load\"\n  navigated to \"https://www.google.com/maps/place/HSL/@40.764807,-111.87873,17z/data=!3m1!4b1!4m6!3m5!1s0x8752f56d646be8bd:0x4aa5cfbbe1294105!8m2!3d40.764807!4d-111.87873!16s%2Fg%2F11cmd395yt?authuser=0&hl=en&entry=ttu&g_ep=EgoyMDI1MDUxMS4wIKXMDSoASAFQAw%3D%3D\"\n============================================================"
    }
  },
  {
    "data": {
      "address": "321 US-6, Eureka, UT 84628, United States",
      "title": "Cast Iron Bistro",
      "category": "Restaurant",
      "city": "Eureka",
      "google_map_link": "https://www.google.com/maps/place/Cast+Iron+Bistro/data=!4m7!3m6!1s0x874d118bafab1f1d:0x938644831dbf1235!8m2!3d39.9538469!4d-112.1216606!16s%2Fg%2F11q2z3t26m!19sChIJHR-rr4sRTYcRNRK_HYNEhpM?authuser=0&hl=en&rclk=1",
      "workhours": "Tuesday, Closed; Wednesday, Closed; Thursday, Closed; Friday, 10 am to 7:30 pm; Saturday, 10 am to 2:30 pm; Sunday, Closed; Monday, Closed. Hide open hours for the week",
      "latitude": "",
      "longitude": -112.1216606,
      "phone": "+1 435-433-2253",
      "avg_rating": "4.9",
      "rating_count": "143",
      "state": "Utah",
      "website": "facebook.com"
    },
    "errors": {
      "latitude": "page.waitForURL: Timeout 10000ms exceeded.\n=========================== logs ===========================\nwaiting for navigation until \"load\"\n  navigated to \"https://www.google.com/maps/place/Cast+Iron+Bistro/@39.9538469,-112.1216606,17z/data=!3m1!4b1!4m6!3m5!1s0x874d118bafab1f1d:0x938644831dbf1235!8m2!3d39.9538469!4d-112.1216606!16s%2Fg%2F11q2z3t26m?authuser=0&hl=en&entry=ttu&g_ep=EgoyMDI1MDUxMS4wIKXMDSoASAFQAw%3D%3D\"\n============================================================"
    }
  },
  {
    "data": {
      "address": "202 S Main St, Salt Lake City, UT 84101, United States",
      "title": "Bambara Salt Lake City",
      "category": "Restaurant",
      "city": "Salt Lake City",
      "google_map_link": "https://www.google.com/maps/place/Bambara+Salt+Lake+City/data=!4m7!3m6!1s0x8752f50f9ca50a81:0xdcb63473d52add1!8m2!3d40.7647555!4d-111.8914309!16s%2Fg%2F1th5_8jh!19sChIJgQqlnA_1UocR0a1SPUdjyw0?authuser=0&hl=en&rclk=1",
      "workhours": "Tuesday, 7 am to 2 pm, 5 to 9 pm; Wednesday, 7 am to 2 pm, 5 to 9 pm; Thursday, 7 am to 2 pm, 5 to 9 pm; Friday, 7 am to 2 pm, 5 to 10 pm; Saturday, 7 am to 2 pm, 5 to 10 pm; Sunday, 7 am to 2 pm, 5 to 9 pm; Monday, 7 am to 2 pm, 5 to 9 pm. Hide open hours for the week",
      "latitude": 40.7647555,
      "longitude": -111.8914309,
      "phone": "+1 801-363-5454",
      "avg_rating": "4.3",
      "rating_count": "1104",
      "state": "Utah",
      "website": "bambara-slc.com"
    },
    "errors": {}
  },
  {
    "data": {
      "address": "12234 Draper Gate Dr, Draper, UT 84020, United States",
      "title": "The Cliff Dining Pub",
      "category": "Gastropub",
      "city": "Draper",
      "google_map_link": "https://www.google.com/maps/place/The+Cliff+Dining+Pub/data=!4m7!3m6!1s0x8752876a161254c3:0xecf58fc5d817c9fb!8m2!3d40.528!4d-111.85294!16s%2Fg%2F12q4x1c8b!19sChIJw1QSFmqHUocR-8kX2MWP9ew?authuser=0&hl=en&rclk=1",
      "workhours": "Tuesday, 4 to 10 pm; Wednesday, 4 to 10 pm; Thursday, 4 to 10 pm; Friday, 4 to 11 pm; Saturday, 10 am to 11 pm; Sunday, 10 am to 9 pm; Monday, 4 to 10 pm. Hide open hours for the week",
      "latitude": 40.528,
      "longitude": -111.85294,
      "phone": "+1 801-523-2053",
      "avg_rating": "4.3",
      "rating_count": "2173",
      "state": "Utah",
      "website": "cliffdiningpub.com"
    },
    "errors": {}
  },
  {
    "data": {
      "address": "3330 N University Ave, Provo, UT 84604, United States",
      "title": "Block Restaurant",
      "category": "American restaurant",
      "city": "Provo",
      "google_map_link": "https://www.google.com/maps/place/Block+Restaurant/data=!4m7!3m6!1s0x874d907cf8cbbe71:0x5cc92fec9895eec8!8m2!3d40.2779107!4d-111.6570362!16s%2Fg%2F11h9rnbrkv!19sChIJcb7L-HyQTYcRyO6VmOwvyVw?authuser=0&hl=en&rclk=1",
      "workhours": "Tuesday, 5 to 9 pm; Wednesday, 5 to 9 pm; Thursday, 5 to 9 pm; Friday, 5 to 10 pm; Saturday, 10 am to 10 pm; Sunday, 10 am to 2 pm; Monday, Closed. Hide open hours for the week",
      "latitude": 40.2779107,
      "longitude": -111.6570362,
      "phone": "+1 801-885-7558",
      "avg_rating": "4.5",
      "rating_count": "922",
      "state": "Utah",
      "website": "blockrestaurantgroup.com"
    },
    "errors": {}
  },
  {
    "data": {
      "address": "180 Center St, Orem, UT 84057, United States",
      "title": "Lomito's Restaurant",
      "category": "Latin American restaurant",
      "city": "Orem",
      "google_map_link": "https://www.google.com/maps/place/Lomito%27s+Restaurant/data=!4m7!3m6!1s0x874d9acfbf95bec3:0x35373bc81a20b5a9!8m2!3d40.2975221!4d-111.700201!16s%2Fg%2F1td5m592!19sChIJw76Vv8-aTYcRqbUgGsg7NzU?authuser=0&hl=en&rclk=1",
      "workhours": "Tuesday, 11:30 am to 8 pm; Wednesday, 11:30 am to 8 pm; Thursday, 11:30 am to 8 pm; Friday, 11:30 am to 8 pm; Saturday, 11:30 am to 8 pm; Sunday, Closed; Monday, 11:30 am to 8 pm. Hide open hours for the week",
      "latitude": 40.2975221,
      "longitude": -111.700201,
      "phone": "+1 801-607-1602",
      "avg_rating": "4.6",
      "rating_count": "637",
      "state": "Utah",
      "website": "lomitosrestaurant.com"
    },
    "errors": {}
  },
  {
    "data": {
      "address": "8841 N Alpine Lp Rd, Sundance, UT 84604, United States",
      "title": "The Foundry Grill at Sundance Resort",
      "category": "Grill",
      "city": "Provo",
      "google_map_link": "https://www.google.com/maps/place/The+Foundry+Grill+at+Sundance+Resort/data=!4m7!3m6!1s0x874d8ea4b59b053b:0x55e1cf07f5848769!8m2!3d40.3921451!4d-111.5791913!16s%2Fg%2F1tslk5yl!19sChIJOwWbtaSOTYcRaYeE9QfP4VU?authuser=0&hl=en&rclk=1",
      "workhours": "Tuesday, 8:30 to 10:30 am, 11:30 am to 3 pm, 5 to 9 pm; Wednesday, 8:30 to 10:30 am, 11:30 am to 3 pm, 5 to 9 pm; Thursday, 8:30 to 10:30 am, 11:30 am to 3 pm, 5 to 9 pm; Friday, 8:30 to 10:30 am, 11:30 am to 3 pm, 5 to 9 pm; Saturday, 8:30 to 10:30 am, 11:30 am to 3 pm, 5 to 9 pm; Sunday, 9 am to 2 pm, 5 to 9 pm; Monday, 8:30 to 10:30 am, 11:30 am to 3 pm, 5 to 9 pm. Hide open hours for the week",
      "latitude": 40.3921451,
      "longitude": -111.5791913,
      "phone": "+1 866-932-2295",
      "avg_rating": "4.3",
      "rating_count": "1102",
      "state": "Utah",
      "website": "sundanceresort.com"
    },
    "errors": {}
  },
  {
    "data": {
      "address": "987 W 500 N #101, American Fork, UT 84003, United States",
      "title": "Little India Fine Dining",
      "category": "Indian restaurant",
      "city": "American Fork",
      "google_map_link": "https://www.google.com/maps/place/Little+India+Fine+Dining/data=!4m7!3m6!1s0x874d81861c2cf3c5:0x2ae0a954cef463b4!8m2!3d40.3882266!4d-111.8242073!16s%2Fg%2F11qh2wrxgt!19sChIJxfMsHIaBTYcRtGP0zlSp4Co?authuser=0&hl=en&rclk=1",
      "workhours": "Tuesday, 4 to 9 pm; Wednesday, 4 to 9 pm; Thursday, 4 to 9 pm; Friday, 4 to 9 pm; Saturday, 4 to 9 pm; Sunday, Closed; Monday, 4 to 9 pm. Hide open hours for the week",
      "latitude": 40.3882266,
      "longitude": -111.8242073,
      "phone": "+1 801-756-8888",
      "avg_rating": "4.9",
      "rating_count": "4402",
      "state": "Utah",
      "website": "littleindiaut.com"
    },
    "errors": {}
  },
  {
    "data": {
      "address": "510 S 300 W #100, Salt Lake City, UT 84101, United States",
      "title": "Urban Hill",
      "category": "Restaurant",
      "city": "Salt Lake City",
      "google_map_link": "https://www.google.com/maps/place/Urban+Hill/data=!4m7!3m6!1s0x8752f52a908941ab:0xe40d5e620381ccbb!8m2!3d40.7581958!4d-111.9004448!16s%2Fg%2F11k3z9k93b!19sChIJq0GJkCr1UocRu8yBA2JeDeQ?authuser=0&hl=en&rclk=1",
      "workhours": "Tuesday, 5 to 9:30 pm; Wednesday, 5 to 9:30 pm; Thursday, 5 to 9:30 pm; Friday, 5 to 9:30 pm; Saturday, 10 am to 2 pm, 5 to 9:30 pm; Sunday, 10 am to 2 pm, 5 to 9 pm; Monday, 5 to 9:30 pm. Hide open hours for the week",
      "latitude": 40.7581958,
      "longitude": -111.9004448,
      "phone": "+1 385-295-4200",
      "avg_rating": "4.6",
      "rating_count": "700",
      "state": "Utah",
      "website": "urban-hill.com"
    },
    "errors": {}
  },
  {
    "data": {
      "address": "2477 Fort Union Blvd, Salt Lake City, UT 84121, United States",
      "title": "Carmine's Italian Restaurant",
      "category": "Italian restaurant",
      "city": "Cottonwood Heights",
      "google_map_link": "https://www.google.com/maps/place/Carmine%27s+Italian+Restaurant/data=!4m7!3m6!1s0x875262fa6406a7d1:0xb1e23d3d2a8b3a09!8m2!3d40.6249593!4d-111.8200403!16s%2Fg%2F11dz_2pcqc!19sChIJ0acGZPpiUocRCTqLKj094rE?authuser=0&hl=en&rclk=1",
      "workhours": "",
      "latitude": 40.6249593,
      "longitude": -111.8200403,
      "phone": "+1 801-948-4468",
      "avg_rating": "4.4",
      "rating_count": "877",
      "state": "Utah",
      "website": "carmines.restaurant"
    },
    "errors": {}
  },
  {
    "data": {
      "address": "234 W 900 S, Salt Lake City, UT 84101, United States",
      "title": "Vertical Diner",
      "category": "Vegan restaurant",
      "city": "Salt Lake City",
      "google_map_link": "https://www.google.com/maps/place/Vertical+Diner/data=!4m7!3m6!1s0x8752f56c5257505b:0x3d5a765e5d1be4b5!8m2!3d40.7499921!4d-111.8978697!16s%2Fg%2F1tnjk15h!19sChIJW1BXUmz1UocRteQbXV52Wj0?authuser=0&hl=en&rclk=1",
      "workhours": "",
      "latitude": 40.7499921,
      "longitude": -111.8978697,
      "phone": "+1 801-484-8378",
      "avg_rating": "4.5",
      "rating_count": "3281",
      "state": "Utah",
      "website": "verticaldiner.com"
    },
    "errors": {}
  },
  {
    "data": {
      "address": "68 W 3900 S, Salt Lake City, UT 84107, United States",
      "title": "Left Fork Grill",
      "category": "American restaurant",
      "city": "South Salt Lake",
      "google_map_link": "https://www.google.com/maps/place/Left+Fork+Grill/data=!4m7!3m6!1s0x87528a507da1777b:0xaaa259b225d3a0fd!8m2!3d40.6873282!4d-111.8930103!16s%2Fg%2F1tdgkr66!19sChIJe3ehfVCKUocR_aDTJbJZoqo?authuser=0&hl=en&rclk=1",
      "workhours": "Tuesday, 7 am to 3 pm; Wednesday, 7 am to 8 pm; Thursday, 7 am to 8 pm; Friday, 7 am to 8 pm; Saturday, 7 am to 8 pm; Sunday, 7 am to 3 pm; Monday, 7 am to 3 pm. Hide open hours for the week",
      "latitude": 40.6873282,
      "longitude": -111.8930103,
      "phone": "+1 801-266-4322",
      "avg_rating": "4.4",
      "rating_count": "1862",
      "state": "Utah",
      "website": "leftforkgrillslc.com"
    },
    "errors": {}
  },
  {
    "data": {
      "address": "102 N University Ave, Provo, UT 84601, United States",
      "title": "Communal",
      "category": "American restaurant",
      "city": "Provo",
      "google_map_link": "https://www.google.com/maps/place/Communal/data=!4m7!3m6!1s0x874d975347fdadc1:0x76636a86d0370462!8m2!3d40.2352417!4d-111.6583861!16s%2Fg%2F1td5glv1!19sChIJwa39R1OXTYcRYgQ30IZqY3Y?authuser=0&hl=en&rclk=1",
      "workhours": "",
      "latitude": 40.2352417,
      "longitude": -111.6583861,
      "phone": "+1 801-373-8000",
      "avg_rating": "4.4",
      "rating_count": "1331",
      "state": "Utah",
      "website": "communalrestaurant.com"
    },
    "errors": {}
  },
  {
    "data": {
      "address": "1223 U.S. Hwy 40, Heber City, UT 84032, United States",
      "title": "Back 40 Ranch House Grill",
      "category": "Restaurant",
      "city": "Heber City",
      "google_map_link": "https://www.google.com/maps/place/Back+40+Ranch+House+Grill/data=!4m7!3m6!1s0x87520a76b7a052f1:0xaefde1249a539fd5!8m2!3d40.5220444!4d-111.4112398!16s%2Fg%2F11by_plh84!19sChIJ8VKgt3YKUocR1Z9TmiTh_a4?authuser=0&hl=en&rclk=1",
      "workhours": "Tuesday, 11 am to 3:30 pm, 4:30 to 10 pm; Wednesday, 11 am to 3:30 pm, 4:30 to 10 pm; Thursday, 11 am to 3:30 pm, 4:30 to 10 pm; Friday, 11 am to 3:30 pm, 4:30 to 10 pm; Saturday, 11 am to 3:30 pm, 4:30 to 10 pm; Sunday, 10 am to 3:30 pm, 4:30 to 10 pm; Monday, 11 am to 3:30 pm, 4:30 to 10 pm. Hide open hours for the week",
      "latitude": "",
      "longitude": -111.4112398,
      "phone": "+1 435-654-3070",
      "avg_rating": "4.6",
      "rating_count": "2052",
      "state": "Utah",
      "website": "back40utah.com"
    },
    "errors": {
      "latitude": "page.waitForURL: Timeout 10000ms exceeded.\n=========================== logs ===========================\nwaiting for navigation until \"load\"\n  navigated to \"https://www.google.com/maps/place/Back+40+Ranch+House+Grill/@40.5220444,-111.4112398,17z/data=!3m1!4b1!4m6!3m5!1s0x87520a76b7a052f1:0xaefde1249a539fd5!8m2!3d40.5220444!4d-111.4112398!16s%2Fg%2F11by_plh84?authuser=0&hl=en&entry=ttu&g_ep=EgoyMDI1MDUxMS4wIKXMDSoASAFQAw%3D%3D\"\n============================================================"
    }
  },
  {
    "data": {
      "address": "1355 E 2100 S, Salt Lake City, UT 84105, United States",
      "title": "The Dodo Restaurant",
      "category": "Restaurant",
      "city": "Salt Lake City",
      "google_map_link": "https://www.google.com/maps/place/The+Dodo+Restaurant/data=!4m7!3m6!1s0x8752601ebc78f39d:0x2d4396deb77610d1!8m2!3d40.7261306!4d-111.8520806!16s%2Fg%2F1vs5x5_t!19sChIJnfN4vB5gUocR0RB2t96WQy0?authuser=0&hl=en&rclk=1",
      "workhours": "",
      "latitude": 40.7261306,
      "longitude": -111.8520806,
      "phone": "+1 801-486-2473",
      "avg_rating": "4.4",
      "rating_count": "3700",
      "state": "Utah",
      "website": "thedodorestaurant.com"
    },
    "errors": {}
  },
  {
    "data": {
      "address": "2020 E 3300 S, Salt Lake City, UT 84109, United States",
      "title": "Antica Sicilia",
      "category": "Italian restaurant",
      "city": "Millcreek",
      "google_map_link": "https://www.google.com/maps/place/Antica+Sicilia/data=!4m7!3m6!1s0x875261b62a490bf3:0x9ab62e57babd38c5!8m2!3d40.6994925!4d-111.8329873!16s%2Fg%2F11g6vlc6kz!19sChIJ8wtJKrZhUocRxTi9ulcutpo?authuser=0&hl=en&rclk=1",
      "workhours": "Tuesday, 4:30 to 9:30 pm; Wednesday, 4:30 to 9:30 pm; Thursday, 4:30 to 9:30 pm; Friday, 4:30 to 10 pm; Saturday, 4:30 to 10 pm; Sunday, Closed; Monday, 4:30 to 9:30 pm. Hide open hours for the week",
      "latitude": 40.6994925,
      "longitude": -111.8329873,
      "phone": "+1 385-202-7236",
      "avg_rating": "4.6",
      "rating_count": "1209",
      "state": "Utah",
      "website": "anticasiciliautah.com"
    },
    "errors": {}
  },
  {
    "data": {
      "address": "645 S State St, Salt Lake City, UT 84111, United States",
      "title": "The Bayou",
      "category": "Cajun restaurant",
      "city": "Salt Lake City",
      "google_map_link": "https://www.google.com/maps/place/The+Bayou/data=!4m7!3m6!1s0x8752f5166a6e2a4b:0x521db3f6bd2f9980!8m2!3d40.755129!4d-111.887763!16s%2Fg%2F1td3rzsr!19sChIJSypuahb1UocRgJkvvfazHVI?authuser=0&hl=en&rclk=1",
      "workhours": "",
      "latitude": 40.755129,
      "longitude": -111.887763,
      "phone": "+1 801-961-8400",
      "avg_rating": "4.6",
      "rating_count": "3725",
      "state": "Utah",
      "website": "utahbayou.com"
    },
    "errors": {}
  },
  {
    "data": {
      "address": "4801 N University Ave #610, Provo, UT 84604, United States",
      "title": "La Jolla Groves",
      "category": "New American restaurant",
      "city": "Provo",
      "google_map_link": "https://www.google.com/maps/place/La+Jolla+Groves/data=!4m7!3m6!1s0x874d900c27a3edf7:0xe680091a342dcb86!8m2!3d40.2992077!4d-111.6580963!16s%2Fg%2F1w34729z!19sChIJ9-2jJwyQTYcRhsstNBoJgOY?authuser=0&hl=en&rclk=1",
      "workhours": "",
      "latitude": 40.2992077,
      "longitude": -111.6580963,
      "phone": "+1 801-224-5111",
      "avg_rating": "4.2",
      "rating_count": "1298",
      "state": "Utah",
      "website": "lajollagroves.com"
    },
    "errors": {}
  },
  {
    "data": {
      "address": "75 S W Temple St, Salt Lake City, UT 84101, United States",
      "title": "Salt Stone",
      "category": "American restaurant",
      "city": "Salt Lake City",
      "google_map_link": "https://www.google.com/maps/place/Salt+Stone/data=!4m7!3m6!1s0x8752f50605335799:0x49693cd2470c7322!8m2!3d40.7675747!4d-111.8930178!16s%2Fg%2F11cn3jc7fb!19sChIJmVczBQb1UocRInMMR9I8aUk?authuser=0&hl=en&rclk=1",
      "workhours": "Tuesday, 6:30 am to 1 pm, 5 to 9 pm; Wednesday, 6:30 am to 1 pm, 5 to 9 pm; Thursday, 6:30 am to 1 pm, 5 to 9 pm; Friday, 6:30 am to 1 pm, 5 to 9 pm; Saturday, 6:30 am to 1 pm, 5 to 9 pm; Sunday, 6:30 am to 1 pm, 5 to 9 pm; Monday, 6:30 am to 1 pm, 5 to 9 pm. Hide open hours for the week",
      "latitude": 40.7675747,
      "longitude": -111.8930178,
      "phone": "+1 801-537-6023",
      "avg_rating": "3.8",
      "rating_count": "135",
      "state": "Utah",
      "website": "marriott.com"
    },
    "errors": {}
  },
  {
    "data": {
      "address": "62 E Gallivan Ave, Salt Lake City, UT 84111, United States",
      "title": "From Scratch",
      "category": "American restaurant",
      "city": "Salt Lake City",
      "google_map_link": "https://www.google.com/maps/place/From+Scratch/data=!4m7!3m6!1s0x8752f50e2cf97c63:0x1a32619cc04c7f79!8m2!3d40.7634979!4d-111.8893718!16s%2Fg%2F1ptxhbtld!19sChIJY3z5LA71UocReX9MwJxhMho?authuser=0&hl=en&rclk=1",
      "workhours": "Tuesday, 11 am to 9 pm; Wednesday, 11 am to 9 pm; Thursday, 11 am to 9 pm; Friday, 11 am to 10 pm; Saturday, 12 to 10 pm; Sunday, Closed; Monday, 11 am to 9 pm. Hide open hours for the week",
      "latitude": "",
      "longitude": -111.8893718,
      "phone": "+1 801-961-9000",
      "avg_rating": "4.3",
      "rating_count": "1560",
      "state": "Utah",
      "website": "fromscratchslc.com"
    },
    "errors": {
      "latitude": "page.waitForURL: Timeout 10000ms exceeded.\n=========================== logs ===========================\nwaiting for navigation until \"load\"\n  navigated to \"https://www.google.com/maps/place/From+Scratch/@40.7634979,-111.8893718,17z/data=!3m1!4b1!4m6!3m5!1s0x8752f50e2cf97c63:0x1a32619cc04c7f79!8m2!3d40.7634979!4d-111.8893718!16s%2Fg%2F1ptxhbtld?authuser=0&hl=en&entry=ttu&g_ep=EgoyMDI1MDUxMS4wIKXMDSoASAFQAw%3D%3D\"\n============================================================"
    }
  },
  {
    "data": {
      "address": "170 S W Temple St, Salt Lake City, UT 84101, United States",
      "title": "The Salt Republic",
      "category": "American restaurant",
      "city": "Salt Lake City",
      "google_map_link": "https://www.google.com/maps/place/The+Salt+Republic/data=!4m7!3m6!1s0x8752f5da71b09d53:0xb2976ba435f2ba2c!8m2!3d40.7656736!4d-111.8943304!16s%2Fg%2F11ssfgg2sd!19sChIJU52wcdr1UocRLLryNaRrl7I?authuser=0&hl=en&rclk=1",
      "workhours": "Tuesday, 6:30 am to 2 pm, 5 to 10 pm; Wednesday, 6:30 am to 2 pm, 5 to 10 pm; Thursday, 6:30 am to 2 pm, 5 to 10 pm; Friday, 6:30 am to 2 pm, 5 to 10 pm; Saturday, 6:30 am to 2 pm, 5 to 10 pm; Sunday, 6:30 am to 2 pm, 5 to 10 pm; Monday, 6:30 am to 2 pm, 5 to 10 pm. Hide open hours for the week",
      "latitude": 40.7656736,
      "longitude": -111.8943304,
      "phone": "",
      "avg_rating": "4.0",
      "rating_count": "67",
      "state": "Utah",
      "website": "hyatt.com"
    },
    "errors": {}
  },
  {
    "data": {
      "address": "877 E 12300 S #203, Draper, UT 84020, United States",
      "title": "Sauce Boss Southern Kitchen DraperUT",
      "category": "Restaurant",
      "city": "Draper",
      "google_map_link": "https://www.google.com/maps/place/Sauce+Boss+Southern+Kitchen+DraperUT/data=!4m7!3m6!1s0x87528796af77ba79:0x617573885814a5b9!8m2!3d40.5272616!4d-111.8669977!16s%2Fg%2F11h77z8f43!19sChIJebp3r5aHUocRuaUUWIhzdWE?authuser=0&hl=en&rclk=1",
      "workhours": "Tuesday, 4 to 8 pm; Wednesday, 4 to 8 pm; Thursday, 4 to 8 pm; Friday, 12 to 3 pm, 5 to 9 pm; Saturday, 12 to 3 pm, 5 to 9 pm; Sunday, Closed; Monday, Closed. Hide open hours for the week",
      "latitude": 40.5272616,
      "longitude": -111.8669977,
      "phone": "+1 385-434-2433",
      "avg_rating": "4.8",
      "rating_count": "1437",
      "state": "Utah",
      "website": "saucebosssouthernkitchen.com"
    },
    "errors": {}
  },
  {
    "data": {
      "address": "1458 Foothill Dr, Salt Lake City, UT 84108, United States",
      "title": "Five Alls restaurant",
      "category": "Restaurant",
      "city": "Salt Lake City",
      "google_map_link": "https://www.google.com/maps/place/Five+Alls+restaurant/data=!4m7!3m6!1s0x87526071ccfff509:0x719cd11b4508b814!8m2!3d40.7379542!4d-111.8246171!16s%2Fg%2F1tfk4xrh!19sChIJCfX_zHFgUocRFLgIRRvRnHE?authuser=0&hl=en&rclk=1",
      "workhours": "Tuesday, Closed; Wednesday, 5 to 9 pm; Thursday, 5 to 9 pm; Friday, 5 to 9 pm; Saturday, 5 to 9 pm; Sunday, Closed; Monday, Closed. Hide open hours for the week",
      "latitude": "",
      "longitude": -111.8246171,
      "phone": "+1 385-528-1922",
      "avg_rating": "4.3",
      "rating_count": "284",
      "state": "Utah",
      "website": "fiveallsfinedining.com"
    },
    "errors": {
      "latitude": "page.waitForURL: Timeout 10000ms exceeded.\n=========================== logs ===========================\nwaiting for navigation until \"load\"\n  navigated to \"https://www.google.com/maps/place/Five+Alls+restaurant/@40.7379542,-111.8246171,17z/data=!3m1!4b1!4m6!3m5!1s0x87526071ccfff509:0x719cd11b4508b814!8m2!3d40.7379542!4d-111.8246171!16s%2Fg%2F1tfk4xrh?authuser=0&hl=en&entry=ttu&g_ep=EgoyMDI1MDUxMS4wIKXMDSoASAFQAw%3D%3D\"\n============================================================"
    }
  },
  {
    "data": {
      "address": "10 UT-12, Boulder, UT 84716, United States",
      "title": "Burr Trail Grill",
      "category": "American restaurant",
      "city": "Boulder",
      "google_map_link": "https://www.google.com/maps/place/Burr+Trail+Grill/data=!4m7!3m6!1s0x87356e685d1979a1:0xcf09f9761cb9f2d1!8m2!3d37.9014151!4d-111.4245069!16s%2Fg%2F1hc4bgnlr!19sChIJoXkZXWhuNYcR0fK5HHb5Cc8?authuser=0&hl=en&rclk=1",
      "workhours": "Tuesday, 11 am to 6 pm; Wednesday, 11 am to 6 pm; Thursday, 11 am to 2:30 pm; Friday, Closed; Saturday, 11 am to 6:30 pm; Sunday, 11 am to 6:30 pm; Monday, 11 am to 6 pm. Hide open hours for the week",
      "latitude": "",
      "longitude": -111.4245069,
      "phone": "+1 435-335-7511",
      "avg_rating": "4.7",
      "rating_count": "916",
      "state": "Utah",
      "website": "burrtrailgrill.life"
    },
    "errors": {
      "latitude": "page.waitForURL: Timeout 10000ms exceeded.\n=========================== logs ===========================\nwaiting for navigation until \"load\"\n  navigated to \"https://www.google.com/maps/place/Burr+Trail+Grill/@37.9014151,-111.4245069,17z/data=!3m1!4b1!4m6!3m5!1s0x87356e685d1979a1:0xcf09f9761cb9f2d1!8m2!3d37.9014151!4d-111.4245069!16s%2Fg%2F1hc4bgnlr?authuser=0&hl=en&entry=ttu&g_ep=EgoyMDI1MDUxMS4wIKXMDSoASAFQAw%3D%3D\"\n============================================================"
    }
  },
  {
    "data": {
      "address": "4160 Emigration Canyon Rd, Emigration Canyon, UT 84108, United States",
      "title": "Ruth's Diner",
      "category": "Diner",
      "city": "Emigration Canyon",
      "google_map_link": "https://www.google.com/maps/place/Ruth%27s+Diner/data=!4m7!3m6!1s0x87525e19420bcd35:0x94255ff71c36cb3a!8m2!3d40.7617707!4d-111.7806099!16s%2Fg%2F1ym82my5k!19sChIJNc0LQhleUocROss2HPdfJZQ?authuser=0&hl=en&rclk=1",
      "workhours": "Tuesday, Closed; Wednesday, Closed; Thursday, 8 am to 9 pm; Friday, 8 am to 10 pm; Saturday, 8 am to 10 pm; Sunday, 8 am to 9 pm; Monday, 8 am to 9 pm. Hide open hours for the week",
      "latitude": "",
      "longitude": -111.7806099,
      "phone": "+1 801-582-5807",
      "avg_rating": "4.6",
      "rating_count": "5511",
      "state": "Utah",
      "website": "ruthsdiner.com"
    },
    "errors": {
      "latitude": "page.waitForURL: Timeout 10000ms exceeded.\n=========================== logs ===========================\nwaiting for navigation until \"load\"\n  navigated to \"https://www.google.com/maps/place/Ruth's+Diner/@40.7617707,-111.7806099,17z/data=!3m1!4b1!4m6!3m5!1s0x87525e19420bcd35:0x94255ff71c36cb3a!8m2!3d40.7617707!4d-111.7806099!16s%2Fg%2F1ym82my5k?authuser=0&hl=en&entry=ttu&g_ep=EgoyMDI1MDUxMS4wIKXMDSoASAFQAw%3D%3D\"\n============================================================"
    }
  },
  {
    "data": {
      "address": "1446 S State St, Salt Lake City, UT 84115, United States",
      "title": "The 14 peaks",
      "category": "Restaurant",
      "city": "Salt Lake City",
      "google_map_link": "https://www.google.com/maps/place/The+14+peaks/data=!4m7!3m6!1s0x8752f5fafc75a861:0x2067dcdaa6cbebba!8m2!3d40.7381935!4d-111.8885969!16s%2Fg%2F11vwdsq9nb!19sChIJYah1_Pr1UocRuuvLptrcZyA?authuser=0&hl=en&rclk=1",
      "workhours": "",
      "latitude": "",
      "longitude": -111.8885969,
      "phone": "+1 801-485-1646",
      "avg_rating": "4.9",
      "rating_count": "951",
      "state": "Utah",
      "website": "the14peaksrestaurant.com"
    },
    "errors": {
      "latitude": "page.waitForURL: Timeout 10000ms exceeded.\n=========================== logs ===========================\nwaiting for navigation until \"load\"\n  navigated to \"https://www.google.com/maps/place/The+14+peaks/@40.7381935,-111.8885969,17z/data=!3m1!4b1!4m6!3m5!1s0x8752f5fafc75a861:0x2067dcdaa6cbebba!8m2!3d40.7381935!4d-111.8885969!16s%2Fg%2F11vwdsq9nb?authuser=0&hl=en&entry=ttu&g_ep=EgoyMDI1MDUxMS4wIKXMDSoASAFQAw%3D%3D\"\n============================================================"
    }
  },
  {
    "data": {
      "address": "11052 S State St C, Sandy, UT 84070, United States",
      "title": "Vessel Kitchen",
      "category": "Restaurant",
      "city": "Sandy",
      "google_map_link": "https://www.google.com/maps/place/Vessel+Kitchen/data=!4m7!3m6!1s0x875287d8b1c3b3a1:0xbcbdb62fc76ac86c!8m2!3d40.5504533!4d-111.8912415!16s%2Fg%2F11fp1l6xvg!19sChIJobPDsdiHUocRbMhqxy-2vbw?authuser=0&hl=en&rclk=1",
      "workhours": "Tuesday, 11 am to 9 pm; Wednesday, 11 am to 9 pm; Thursday, 11 am to 9 pm; Friday, 11 am to 9 pm; Saturday, 11 am to 9 pm; Sunday, 11 am to 9 pm; Monday, 11 am to 9 pm. Hide open hours for the week",
      "latitude": "",
      "longitude": -111.8912415,
      "phone": "+1 801-349-2544",
      "avg_rating": "4.5",
      "rating_count": "1021",
      "state": "Utah",
      "website": "vesselkitchen.com"
    },
    "errors": {
      "latitude": "page.waitForURL: Timeout 10000ms exceeded.\n=========================== logs ===========================\nwaiting for navigation until \"load\"\n  navigated to \"https://www.google.com/maps/place/Vessel+Kitchen/@40.5504533,-111.8912415,17z/data=!3m1!4b1!4m6!3m5!1s0x875287d8b1c3b3a1:0xbcbdb62fc76ac86c!8m2!3d40.5504533!4d-111.8912415!16s%2Fg%2F11fp1l6xvg?authuser=0&hl=en&entry=ttu&g_ep=EgoyMDI1MDUxMS4wIKXMDSoASAFQAw%3D%3D\"\n============================================================"
    }
  },
  {
    "data": {
      "address": "HC 64 UT-128, Moab, UT 84532, United States",
      "title": "River Grill Restaurant",
      "category": "Restaurant",
      "city": "Moab",
      "google_map_link": "https://www.google.com/maps/place/River+Grill+Restaurant/data=!4m7!3m6!1s0x8747dd1ed5ae4491:0x19eff0e8f3355ea!8m2!3d38.70008!4d-109.404859!16s%2Fg%2F11h1jynl8!19sChIJkUSu1R7dR4cR6lUzjw7_ngE?authuser=0&hl=en&rclk=1",
      "workhours": "",
      "latitude": 38.70008,
      "longitude": -109.404859,
      "phone": "+1 435-259-4642",
      "avg_rating": "4.4",
      "rating_count": "129",
      "state": "Utah",
      "website": "sorrelriver.com"
    },
    "errors": {}
  },
  {
    "data": {
      "address": "136 Heber Ave, Park City, UT 84060, United States",
      "title": "Handle",
      "category": "American restaurant",
      "city": "Park City",
      "google_map_link": "https://www.google.com/maps/place/Handle/data=!4m7!3m6!1s0x875272bd2fd1374f:0x18e92b26363d1546!8m2!3d40.6461083!4d-111.4962667!16s%2Fg%2F11b5pj1c58!19sChIJTzfRL71yUocRRhU9NiYr6Rg?authuser=0&hl=en&rclk=1",
      "workhours": "Tuesday, Closed; Wednesday, 5 to 9 pm; Thursday, 5 to 9 pm; Friday, 5 to 9 pm; Saturday, 5 to 9 pm; Sunday, 5 to 9 pm; Monday, Closed. Hide open hours for the week",
      "latitude": 40.6461083,
      "longitude": -111.4962667,
      "phone": "+1 435-602-1155",
      "avg_rating": "4.4",
      "rating_count": "663",
      "state": "Utah",
      "website": "handleparkcity.com"
    },
    "errors": {}
  },
  {
    "data": {
      "address": "40 E 100 S #100, Salt Lake City, UT 84111, United States",
      "title": "The Capital Grille",
      "category": "Fine dining restaurant",
      "city": "Salt Lake City",
      "google_map_link": "https://www.google.com/maps/place/The+Capital+Grille/data=!4m7!3m6!1s0x8752f5360531cca3:0xc1e3ac8f5298fe54!8m2!3d40.7669048!4d-111.8895447!16s%2Fg%2F11p779v9h1!19sChIJo8wxBTb1UocRVP6YUo-s48E?authuser=0&hl=en&rclk=1",
      "workhours": "Tuesday, 11:30 am to 10 pm; Wednesday, 11:30 am to 10 pm; Thursday, 11:30 am to 10 pm; Friday, 11:30 am to 10 pm; Saturday, 5 to 10 pm; Sunday, 4 to 8 pm; Monday, 11:30 am to 10 pm. Hide open hours for the week",
      "latitude": 40.7669048,
      "longitude": -111.8895447,
      "phone": "+1 385-419-3888",
      "avg_rating": "4.7",
      "rating_count": "747",
      "state": "Utah",
      "website": "thecapitalgrille.com"
    },
    "errors": {}
  },
  {
    "data": {
      "address": "350 Main St, Park City, UT 84060, United States",
      "title": "350 Main Brasserie",
      "category": "American restaurant",
      "city": "Park City",
      "google_map_link": "https://www.google.com/maps/place/350+Main+Brasserie/data=!4m7!3m6!1s0x875272bc23552777:0xa0bdd107f9be37e7!8m2!3d40.6428046!4d-111.4950754!16s%2Fg%2F1vk6zq3x!19sChIJdydVI7xyUocR5ze--QfRvaA?authuser=0&hl=en&rclk=1",
      "workhours": "Tuesday, 5 to 9 pm; Wednesday, 5 to 9 pm; Thursday, 5 to 9 pm; Friday, 5 to 9 pm; Saturday, 5 to 9 pm; Sunday, Closed; Monday, Closed. Hide open hours for the week",
      "latitude": 40.6428046,
      "longitude": -111.4950754,
      "phone": "+1 435-649-3140",
      "avg_rating": "4.2",
      "rating_count": "330",
      "state": "Utah",
      "website": "350main.com"
    },
    "errors": {}
  },
  {
    "data": {
      "address": "540 Main St, Park City, UT 84060, United States",
      "title": "Riverhorse on Main",
      "category": "Fine dining restaurant",
      "city": "Park City",
      "google_map_link": "https://www.google.com/maps/place/Riverhorse+on+Main/data=!4m7!3m6!1s0x875272bd23327bfd:0xdfa168cd59cdc64e!8m2!3d40.6447833!4d-111.4963544!16s%2Fg%2F1tdw3z55!19sChIJ_XsyI71yUocRTsbNWc1ood8?authuser=0&hl=en&rclk=1",
      "workhours": "Tuesday, 5 to 9 pm; Wednesday, 5 to 9 pm; Thursday, 5 to 9 pm; Friday, 5 to 9:30 pm; Saturday, 5 to 9:30 pm; Sunday, 5 to 9 pm; Monday, 5 to 9 pm. Hide open hours for the week",
      "latitude": 40.6447833,
      "longitude": -111.4963544,
      "phone": "+1 435-649-3536",
      "avg_rating": "4.5",
      "rating_count": "1012",
      "state": "Utah",
      "website": "riverhorseparkcity.com"
    },
    "errors": {}
  },
  {
    "data": {
      "address": "800 West University Parkway, MS154, Orem, UT 84058, United States",
      "title": "Restaurant Forte",
      "category": "Fine dining restaurant",
      "city": "Orem",
      "google_map_link": "https://www.google.com/maps/place/Restaurant+Forte/data=!4m7!3m6!1s0x874d9ae26d972d39:0xae531846e9578b1!8m2!3d40.278271!4d-111.716718!16s%2Fg%2F1ptx66rt9!19sChIJOS2XbeKaTYcRsXiVboQx5Qo?authuser=0&hl=en&rclk=1",
      "workhours": "Tuesday, Closed; Wednesday, 11:15 am to 12:15 pm; Thursday, 11:15 am to 12:15 pm; Friday, Closed; Saturday, Closed; Sunday, Closed; Monday, Closed. Hide open hours for the week",
      "latitude": 40.278271,
      "longitude": -111.716718,
      "phone": "+1 801-863-7054",
      "avg_rating": "4.8",
      "rating_count": "38",
      "state": "Utah",
      "website": "uvu.edu"
    },
    "errors": {}
  },
  {
    "data": {
      "address": "2104 S 700 E #1829, Salt Lake City, UT 84106, United States",
      "title": "Dee's Family Restaurant",
      "category": "Family restaurant",
      "city": "Salt Lake City",
      "google_map_link": "https://www.google.com/maps/place/Dee%27s+Family+Restaurant/data=!4m7!3m6!1s0x87528abad696f62b:0x960ba9cd55248e11!8m2!3d40.7251497!4d-111.8716353!16s%2Fg%2F1v3gscvj!19sChIJK_aW1rqKUocREY4kVc2pC5Y?authuser=0&hl=en&rclk=1",
      "workhours": "Tuesday, 6 am to 12 am; Wednesday, 6 am to 12 am; Thursday, 6 am to 12 am; Friday, 6 am to 2 am; Saturday, 6 am to 2 am; Sunday, 6 am to 12 am; Monday, 6 am to 12 am. Hide open hours for the week",
      "latitude": 40.7251497,
      "longitude": -111.8716353,
      "phone": "+1 801-487-6761",
      "avg_rating": "4.4",
      "rating_count": "3672",
      "state": "Utah",
      "website": "deesutah.com"
    },
    "errors": {}
  },
  {
    "data": {
      "address": "331 Main St, Salt Lake City, UT 84111, United States",
      "title": "Bodega and The Rest",
      "category": "Cocktail bar",
      "city": "Salt Lake City",
      "google_map_link": "https://www.google.com/maps/place/Bodega+and+The+Rest/data=!4m7!3m6!1s0x8752f5103bd21b9d:0xa01b6881ec38eec1!8m2!3d40.7619396!4d-111.8908305!16s%2Fg%2F11csp8f5n_!19sChIJnRvSOxD1UocRwe447IFoG6A?authuser=0&hl=en&rclk=1",
      "workhours": "Tuesday, 5 to 11 pm; Wednesday, 5 to 11 pm; Thursday, 5 pm to 1 am; Friday, 5 pm to 1 am; Saturday, 5 pm to 1 am; Sunday, Closed; Monday, 5 to 11 pm. Hide open hours for the week",
      "latitude": 40.7619396,
      "longitude": -111.8908305,
      "phone": "+1 801-532-4042",
      "avg_rating": "4.5",
      "rating_count": "870",
      "state": "Utah",
      "website": "bodega331.com"
    },
    "errors": {}
  },
  {
    "data": {
      "address": "360 S State St #153, Orem, UT 84058, United States",
      "title": "Asado Argentinian Grill and Cafe",
      "category": "Argentinian restaurant",
      "city": "Orem",
      "google_map_link": "https://www.google.com/maps/place/Asado+Argentinian+Grill+and+Cafe/data=!4m7!3m6!1s0x874d9ac12873681f:0x412e47189dc27ffe!8m2!3d40.2911621!4d-111.6929127!16s%2Fg%2F11c7ss70d8!19sChIJH2hzKMGaTYcR_n_CnRhHLkE?authuser=0&hl=en&rclk=1",
      "workhours": "Tuesday, 11 am to 9 pm; Wednesday, 11 am to 9 pm; Thursday, 11 am to 9 pm; Friday, 11 am to 10 pm; Saturday, 11 am to 10 pm; Sunday, 12 to 6 pm; Monday, 11 am to 9 pm. Hide open hours for the week",
      "latitude": 40.2911621,
      "longitude": -111.6929127,
      "phone": "+1 801-492-5700",
      "avg_rating": "4.4",
      "rating_count": "2608",
      "state": "Utah",
      "website": "asadoorem.com"
    },
    "errors": {}
  },
  {
    "data": {
      "address": "2301 Ashton Blvd, Lehi, UT 84043, United States",
      "title": "Mountainland Grill",
      "category": "Restaurant",
      "city": "Lehi",
      "google_map_link": "https://www.google.com/maps/place/Mountainland+Grill/data=!4m7!3m6!1s0x874d7fdc02dcd35f:0x70e7d732059ae6a1!8m2!3d40.4196604!4d-111.8860031!16s%2Fg%2F11d_bcp82g!19sChIJX9PcAtx_TYcRoeaaBTLX53A?authuser=0&hl=en&rclk=1",
      "workhours": "Tuesday, 10:30 am to 1:30 pm, 5 to 7:30 pm; Wednesday, 10:30 am to 1:30 pm, 5 to 7:30 pm; Thursday, 10:30 am to 1:30 pm, 5 to 7:30 pm; Friday, 10:30 am to 1:30 pm; Saturday, Closed; Sunday, Closed; Monday, 10:30 am to 1:30 pm, 5 to 7:30 pm. Hide open hours for the week",
      "latitude": "",
      "longitude": -111.8860031,
      "phone": "+1 801-753-4150",
      "avg_rating": "4.9",
      "rating_count": "29",
      "state": "Utah",
      "website": "mtec.revelup.online"
    },
    "errors": {
      "latitude": "page.waitForURL: Timeout 10000ms exceeded.\n=========================== logs ===========================\nwaiting for navigation until \"load\"\n  navigated to \"https://www.google.com/maps/place/Mountainland+Grill/@40.4196604,-111.8860031,17z/data=!3m1!4b1!4m6!3m5!1s0x874d7fdc02dcd35f:0x70e7d732059ae6a1!8m2!3d40.4196604!4d-111.8860031!16s%2Fg%2F11d_bcp82g?authuser=0&hl=en&entry=ttu&g_ep=EgoyMDI1MDUxMS4wIKXMDSoASAFQAw%3D%3D\"\n============================================================"
    }
  },
  {
    "data": {
      "address": "131 S 300 W, Salt Lake City, UT 84101, United States",
      "title": "Adelaide",
      "category": "French restaurant",
      "city": "Salt Lake City",
      "google_map_link": "https://www.google.com/maps/place/Adelaide/data=!4m7!3m6!1s0x8752f5c5a60ec5dd:0x9cbd06a03a052f54!8m2!3d40.7663487!4d-111.8993733!16s%2Fg%2F11sjwqy_jc!19sChIJ3cUOpsX1UocRVC8FOqAGvZw?authuser=0&hl=en&rclk=1",
      "workhours": "Tuesday, 6:30 am to 11 pm; Wednesday, 6:30 to 11 am, 11:30 am to 10 pm; Thursday, 6:30 am to 11 pm; Friday, 6:30 to 11 am, 11:30 am to 10 pm; Saturday, 6:30 to 11 am, 11:30 am to 10 pm; Sunday, 6:30 am to 10 pm; Monday, 6:30 to 11 am, 11:30 am to 10 pm. Hide open hours for the week",
      "latitude": "",
      "longitude": -111.8993733,
      "phone": "+1 801-658-4600",
      "avg_rating": "4.3",
      "rating_count": "349",
      "state": "Utah",
      "website": "adelaidesaltlake.com"
    },
    "errors": {
      "latitude": "page.waitForURL: Timeout 10000ms exceeded.\n=========================== logs ===========================\nwaiting for navigation until \"load\"\n  navigated to \"https://www.google.com/maps/place/Adelaide/@40.7663487,-111.8993733,17z/data=!3m1!4b1!4m6!3m5!1s0x8752f5c5a60ec5dd:0x9cbd06a03a052f54!8m2!3d40.7663487!4d-111.8993733!16s%2Fg%2F11sjwqy_jc?authuser=0&hl=en&entry=ttu&g_ep=EgoyMDI1MDUxMS4wIKXMDSoASAFQAw%3D%3D\"\n============================================================"
    }
  },
  {
    "data": {
      "address": "3754 Center View Way, West Jordan, UT 84084, United States",
      "title": "Lucky's Iron Door Roadhouse",
      "category": "Restaurant",
      "city": "West Jordan",
      "google_map_link": "https://www.google.com/maps/place/Lucky%27s+Iron+Door+Roadhouse/data=!4m7!3m6!1s0x87528fd699b333a1:0x69da4c321b4fa2a!8m2!3d40.6193469!4d-111.9802343!16s%2Fg%2F11fprc27nl!19sChIJoTOzmdaPUocRKvq0IcOknQY?authuser=0&hl=en&rclk=1",
      "workhours": "",
      "latitude": "",
      "longitude": -111.9802343,
      "phone": "+1 801-878-9439",
      "avg_rating": "4.3",
      "rating_count": "1936",
      "state": "Utah",
      "website": "luckysirondoor.com"
    },
    "errors": {
      "latitude": "page.waitForURL: Timeout 10000ms exceeded.\n=========================== logs ===========================\nwaiting for navigation until \"load\"\n  navigated to \"https://www.google.com/maps/place/Lucky's+Iron+Door+Roadhouse/@40.6193469,-111.9802343,17z/data=!3m1!4b1!4m6!3m5!1s0x87528fd699b333a1:0x69da4c321b4fa2a!8m2!3d40.6193469!4d-111.9802343!16s%2Fg%2F11fprc27nl?authuser=0&hl=en&entry=ttu&g_ep=EgoyMDI1MDUxMS4wIKXMDSoASAFQAw%3D%3D\"\n============================================================"
    }
  },
  {
    "data": {
      "address": "2523 UT-24, Torrey, UT 84775, United States",
      "title": "Rim Rock Restaurant",
      "category": "Fine dining restaurant",
      "city": "Caineville",
      "google_map_link": "https://www.google.com/maps/place/Rim+Rock+Restaurant/data=!4m7!3m6!1s0x874a3e0850275477:0xaadf21a636858624!8m2!3d38.3185272!4d-111.3821716!16s%2Fg%2F1vvr6pfn!19sChIJd1QnUAg-SocRJIaFNqYh36o?authuser=0&hl=en&rclk=1",
      "workhours": "Tuesday, 5 to 9 pm; Wednesday, 5 to 9 pm; Thursday, 5 to 9 pm; Friday, 5 to 9 pm; Saturday, 5 to 9 pm; Sunday, 5 to 9 pm; Monday, 5 to 9 pm. Hide open hours for the week",
      "latitude": "",
      "longitude": -111.3821716,
      "phone": "+1 435-425-3388",
      "avg_rating": "4.3",
      "rating_count": "589",
      "state": "Utah",
      "website": "therimrock.net"
    },
    "errors": {
      "latitude": "page.waitForURL: Timeout 10000ms exceeded.\n=========================== logs ===========================\nwaiting for navigation until \"load\"\n  navigated to \"https://www.google.com/maps/place/Rim+Rock+Restaurant/@38.3185272,-111.3821716,17z/data=!3m1!4b1!4m6!3m5!1s0x874a3e0850275477:0xaadf21a636858624!8m2!3d38.3185272!4d-111.3821716!16s%2Fg%2F1vvr6pfn?authuser=0&hl=en&entry=ttu&g_ep=EgoyMDI1MDUxMS4wIKXMDSoASAFQAw%3D%3D\"\n============================================================"
    }
  },
  {
    "data": {
      "address": "255 S W Temple St, Salt Lake City, UT 84101, United States",
      "title": "Spencer's For Steaks and Chops Salt Lake City",
      "category": "Restaurant",
      "city": "Salt Lake City",
      "google_map_link": "https://www.google.com/maps/place/Spencer%27s+For+Steaks+and+Chops+Salt+Lake+City/data=!4m7!3m6!1s0x8752f505650c419f:0x51124b69b8dc28c4!8m2!3d40.7639813!4d-111.893438!16s%2Fg%2F1tdks8n7!19sChIJn0EMZQX1UocRxCjcuGlLElE?authuser=0&hl=en&rclk=1",
      "workhours": "",
      "latitude": "",
      "longitude": -111.893438,
      "phone": "+1 801-238-4748",
      "avg_rating": "4.3",
      "rating_count": "993",
      "state": "Utah",
      "website": "spencersslc.com"
    },
    "errors": {
      "latitude": "page.waitForURL: Timeout 10000ms exceeded.\n=========================== logs ===========================\nwaiting for navigation until \"load\"\n  navigated to \"https://www.google.com/maps/place/Spencer's+For+Steaks+and+Chops+Salt+Lake+City/@40.7639813,-111.893438,17z/data=!3m1!4b1!4m6!3m5!1s0x8752f505650c419f:0x51124b69b8dc28c4!8m2!3d40.7639813!4d-111.893438!16s%2Fg%2F1tdks8n7?authuser=0&hl=en&entry=ttu&g_ep=EgoyMDI1MDUxMS4wIKXMDSoASAFQAw%3D%3D\"\n============================================================"
    }
  },
  {
    "data": {
      "address": "33 N Main St, Spring City, UT 84662, United States",
      "title": "Das Café",
      "category": "Restaurant",
      "city": "Spring City",
      "google_map_link": "https://www.google.com/maps/place/Das+Caf%C3%A9/data=!4m7!3m6!1s0x874c6ca10824f421:0x5b5e94c3213ec8ef!8m2!3d39.4786724!4d-111.4962382!16s%2Fg%2F1261fc6q1!19sChIJIfQkCKFsTIcR78g-IcOUXls?authuser=0&hl=en&rclk=1",
      "workhours": "Tuesday, 8 am to 3 pm; Wednesday, 8 am to 3 pm; Thursday, 8 am to 3 pm; Friday, 8 am to 3 pm; Saturday, 8 am to 3 pm; Sunday, Closed; Monday, Closed. Hide open hours for the week",
      "latitude": 39.4786724,
      "longitude": -111.4962382,
      "phone": "+1 435-462-7484",
      "avg_rating": "4.8",
      "rating_count": "503",
      "state": "Utah",
      "website": "facebook.com"
    },
    "errors": {}
  },
  {
    "data": {
      "address": "1080 E 1300 S, Salt Lake City, UT 84105, United States",
      "title": "Kyoto Japanese Restaurant",
      "category": "Japanese restaurant",
      "city": "Salt Lake City",
      "google_map_link": "https://www.google.com/maps/place/Kyoto+Japanese+Restaurant/data=!4m7!3m6!1s0x8752f554e18745cb:0xbd35f700f0188c5!8m2!3d40.7413913!4d-111.8599014!16s%2Fg%2F1vc828xp!19sChIJy0WH4VT1UocRxYgBD3Bf0ws?authuser=0&hl=en&rclk=1",
      "workhours": "",
      "latitude": 40.7413913,
      "longitude": -111.8599014,
      "phone": "+1 801-487-3525",
      "avg_rating": "4.5",
      "rating_count": "1676",
      "state": "Utah",
      "website": "kyotoslc.com"
    },
    "errors": {}
  },
  {
    "data": {
      "address": "232 NW State St #200, American Fork, UT 84003, United States",
      "title": "Aubergine Kitchen",
      "category": "Health food restaurant",
      "city": "American Fork",
      "google_map_link": "https://www.google.com/maps/place/Aubergine+Kitchen/data=!4m7!3m6!1s0x874d819a997660ad:0x2995ee352668562e!8m2!3d40.3820187!4d-111.8137659!16s%2Fg%2F11j1hbnvtc!19sChIJrWB2mZqBTYcRLlZoJjXulSk?authuser=0&hl=en&rclk=1",
      "workhours": "",
      "latitude": 40.3820187,
      "longitude": -111.8137659,
      "phone": "+1 801-610-9871",
      "avg_rating": "4.4",
      "rating_count": "908",
      "state": "Utah",
      "website": "auberginekitchen.com"
    },
    "errors": {}
  },
  {
    "data": {
      "address": "752 Blue Vista Ln, Midvale, UT 84047, United States",
      "title": "Great India LLC",
      "category": "Indian restaurant",
      "city": "Midvale",
      "google_map_link": "https://www.google.com/maps/place/Great+India+LLC/data=!4m7!3m6!1s0x87528971c6afead3:0x679fb662b8237409!8m2!3d40.6200505!4d-111.9121437!16s%2Fg%2F11qhqlx33g!19sChIJ0-qvxnGJUocRCXQjuGK2n2c?authuser=0&hl=en&rclk=1",
      "workhours": "Tuesday, 11 am to 9:30 pm; Wednesday, 11 am to 9:30 pm; Thursday, 11 am to 9:30 pm; Friday, 11 am to 10 pm; Saturday, 11 am to 10 pm; Sunday, 4 to 8:30 pm; Monday, 11 am to 9:30 pm. Hide open hours for the week",
      "latitude": 40.6200505,
      "longitude": -111.9121437,
      "phone": "+1 801-495-4141",
      "avg_rating": "4.7",
      "rating_count": "991",
      "state": "Utah",
      "website": "greatindiamidvaleutah.com"
    },
    "errors": {}
  },
  {
    "data": {
      "address": "3661 Outlet Pkwy, Lehi, UT 84043, United States",
      "title": "Strap Tank Brewery",
      "category": "American restaurant",
      "city": "Lehi",
      "google_map_link": "https://www.google.com/maps/place/Strap+Tank+Brewery/data=!4m7!3m6!1s0x875281c4662200b3:0x67aa315264c7e0f6!8m2!3d40.4328184!4d-111.8843319!16s%2Fg%2F11fmfh2ss4!19sChIJswAiZsSBUocR9uDHZFIxqmc?authuser=0&hl=en&rclk=1",
      "workhours": "Tuesday, 11 am to 10 pm; Wednesday, 11 am to 10 pm; Thursday, 11 am to 10 pm; Friday, 11 am to 11 pm; Saturday, 11 am to 11 pm; Sunday, 11:30 am to 9 pm; Monday, 11 am to 10 pm. Hide open hours for the week",
      "latitude": 40.4328184,
      "longitude": -111.8843319,
      "phone": "+1 385-503-8443",
      "avg_rating": "4.0",
      "rating_count": "1779",
      "state": "Utah",
      "website": "straptankbrewery.com"
    },
    "errors": {}
  },
  {
    "data": {
      "address": "275 S W Temple St, Salt Lake City, UT 84101, United States",
      "title": "Ruth's Chris Steak House",
      "category": "Steak house",
      "city": "Salt Lake City",
      "google_map_link": "https://www.google.com/maps/place/Ruth%27s+Chris+Steak+House/data=!4m7!3m6!1s0x8752f50543475499:0x3aa7a511732af8b6!8m2!3d40.7631181!4d-111.89357!16s%2Fg%2F1tdf1vcm!19sChIJmVRHQwX1UocRtvgqcxGlpzo?authuser=0&hl=en&rclk=1",
      "workhours": "",
      "latitude": 40.7631181,
      "longitude": -111.89357,
      "phone": "+1 801-363-2000",
      "avg_rating": "4.7",
      "rating_count": "3873",
      "state": "Utah",
      "website": "ruthschris.com"
    },
    "errors": {}
  },
  {
    "data": {
      "address": "10672 State St, Sandy, UT 84070, United States",
      "title": "Sunday's Best",
      "category": "Brunch restaurant",
      "city": "Sandy",
      "google_map_link": "https://www.google.com/maps/place/Sunday%27s+Best/data=!4m7!3m6!1s0x875287cbf7a1e165:0xc5c7951cf31a02fa!8m2!3d40.557633!4d-111.8913214!16s%2Fg%2F11nm_z7rwl!19sChIJZeGh98uHUocR-gIa8xyVx8U?authuser=0&hl=en&rclk=1",
      "workhours": "",
      "latitude": "",
      "longitude": -111.8913214,
      "phone": "+1 801-441-3331",
      "avg_rating": "4.4",
      "rating_count": "2787",
      "state": "Utah",
      "website": "brunchmehard.com"
    },
    "errors": {
      "latitude": "page.waitForURL: Timeout 10000ms exceeded.\n=========================== logs ===========================\nwaiting for navigation until \"load\"\n  navigated to \"https://www.google.com/maps/place/Sunday's+Best/@40.557633,-111.8913214,17z/data=!3m1!4b1!4m6!3m5!1s0x875287cbf7a1e165:0xc5c7951cf31a02fa!8m2!3d40.557633!4d-111.8913214!16s%2Fg%2F11nm_z7rwl?authuser=0&hl=en&entry=ttu&g_ep=EgoyMDI1MDUxMS4wIKXMDSoASAFQAw%3D%3D\"\n============================================================"
    }
  },
  {
    "data": {
      "address": "849 E 9400 S, Sandy, UT 84094, United States",
      "title": "Scelto",
      "category": "Italian restaurant",
      "city": "Sandy",
      "google_map_link": "https://www.google.com/maps/place/Scelto/data=!4m7!3m6!1s0x8752873fa1f0f3c1:0x56e4ddaf77677284!8m2!3d40.5821716!4d-111.8671432!16s%2Fg%2F11l5w1gwbv!19sChIJwfPwoT-HUocRhHJnd6_d5FY?authuser=0&hl=en&rclk=1",
      "workhours": "Tuesday, 5 to 9 pm; Wednesday, 5 to 9 pm; Thursday, 5 to 9 pm; Friday, Closed; Saturday, 5 to 9 pm; Sunday, Closed; Monday, 5 to 9 pm. Hide open hours for the week",
      "latitude": "",
      "longitude": -111.8671432,
      "phone": "+1 385-542-3030",
      "avg_rating": "4.5",
      "rating_count": "362",
      "state": "Utah",
      "website": "sceltoslc.com"
    },
    "errors": {
      "latitude": "page.waitForURL: Timeout 10000ms exceeded.\n=========================== logs ===========================\nwaiting for navigation until \"load\"\n  navigated to \"https://www.google.com/maps/place/Scelto/@40.5821716,-111.8671432,17z/data=!3m1!4b1!4m6!3m5!1s0x8752873fa1f0f3c1:0x56e4ddaf77677284!8m2!3d40.5821716!4d-111.8671432!16s%2Fg%2F11l5w1gwbv?authuser=0&hl=en&entry=ttu&g_ep=EgoyMDI1MDUxMS4wIKXMDSoASAFQAw%3D%3D\"\n============================================================"
    }
  },
  {
    "data": {
      "address": "33 E 11400 S, Sandy, UT 84070, United States",
      "title": "Makanmakan Asian Streat Food Fare",
      "category": "Asian restaurant",
      "city": "Sandy",
      "google_map_link": "https://www.google.com/maps/place/Makanmakan+Asian+Streat+Food+Fare/data=!4m7!3m6!1s0x875287a677f2d055:0xa5f5330f38373eb6!8m2!3d40.5449598!4d-111.8904294!16s%2Fg%2F11gblfcyyk!19sChIJVdDyd6aHUocRtj43OA8z9aU?authuser=0&hl=en&rclk=1",
      "workhours": "Tuesday, 11 am to 3 pm, 4 to 8 pm; Wednesday, 11 am to 3 pm, 4 to 8 pm; Thursday, 11 am to 3 pm, 4 to 8 pm; Friday, 11 am to 3 pm, 4 to 8 pm; Saturday, 11 am to 8 pm; Sunday, Closed; Monday, 11 am to 3 pm, 4 to 8 pm. Hide open hours for the week",
      "latitude": "",
      "longitude": -111.8904294,
      "phone": "+1 801-251-0967",
      "avg_rating": "4.7",
      "rating_count": "1098",
      "state": "Utah",
      "website": "makanmakansandy.com"
    },
    "errors": {
      "latitude": "page.waitForURL: Timeout 10000ms exceeded.\n=========================== logs ===========================\nwaiting for navigation until \"load\"\n  navigated to \"https://www.google.com/maps/place/Makanmakan+Asian+Streat+Food+Fare/@40.5449598,-111.8904294,17z/data=!3m1!4b1!4m6!3m5!1s0x875287a677f2d055:0xa5f5330f38373eb6!8m2!3d40.5449598!4d-111.8904294!16s%2Fg%2F11gblfcyyk?authuser=0&hl=en&entry=ttu&g_ep=EgoyMDI1MDUxMS4wIKXMDSoASAFQAw%3D%3D\"\n============================================================"
    }
  },
  {
    "data": {
      "address": "7321 Canyon Centre Pkwy, Cottonwood Heights, UT 84121, United States",
      "title": "Eight Settlers Restaurant & Distillery",
      "category": "Restaurant",
      "city": "Cottonwood Heights",
      "google_map_link": "https://www.google.com/maps/place/Eight+Settlers+Restaurant+%26+Distillery/data=!4m7!3m6!1s0x875263e6d4f3ca5f:0x6ce327f807b21480!8m2!3d40.6184082!4d-111.7898635!16s%2Fg%2F11j4m0tthf!19sChIJX8rz1OZjUocRgBSyB_gn42w?authuser=0&hl=en&rclk=1",
      "workhours": "",
      "latitude": "",
      "longitude": -111.7898635,
      "phone": "+1 385-900-4315",
      "avg_rating": "4.3",
      "rating_count": "750",
      "state": "Utah",
      "website": "eightsettlersdistillery.com"
    },
    "errors": {
      "latitude": "page.waitForURL: Timeout 10000ms exceeded.\n=========================== logs ===========================\nwaiting for navigation until \"load\"\n  navigated to \"https://www.google.com/maps/place/Eight+Settlers+Restaurant+%26+Distillery/@40.6184082,-111.7898635,17z/data=!3m1!4b1!4m6!3m5!1s0x875263e6d4f3ca5f:0x6ce327f807b21480!8m2!3d40.6184082!4d-111.7898635!16s%2Fg%2F11j4m0tthf?authuser=0&hl=en&entry=ttu&g_ep=EgoyMDI1MDUxMS4wIKXMDSoASAFQAw%3D%3D\"\n============================================================"
    }
  },
  {
    "data": {
      "address": "1624 S 1100 E, Salt Lake City, UT 84105, United States",
      "title": "Finn's Cafe",
      "category": "Scandinavian restaurant",
      "city": "Salt Lake City",
      "google_map_link": "https://www.google.com/maps/place/Finn%27s+Cafe/data=!4m7!3m6!1s0x87528aa97664c2c9:0xae2d873d578b3449!8m2!3d40.7342345!4d-111.859823!16s%2Fg%2F1tcyxxjs!19sChIJycJkdqmKUocRSTSLVz2HLa4?authuser=0&hl=en&rclk=1",
      "workhours": "Tuesday, 7:30 am to 2:30 pm; Wednesday, 7:30 am to 2:30 pm; Thursday, 7:30 am to 2:30 pm; Friday, 7:30 am to 2:30 pm; Saturday, 7:30 am to 2:30 pm; Sunday, 7:30 am to 2:30 pm; Monday, 7:30 am to 2:30 pm. Hide open hours for the week",
      "latitude": "",
      "longitude": -111.859823,
      "phone": "+1 801-467-4000",
      "avg_rating": "4.6",
      "rating_count": "1681",
      "state": "Utah",
      "website": "finnscafe.net"
    },
    "errors": {
      "latitude": "page.waitForURL: Timeout 10000ms exceeded.\n=========================== logs ===========================\nwaiting for navigation until \"load\"\n  navigated to \"https://www.google.com/maps/place/Finn's+Cafe/@40.7342345,-111.859823,17z/data=!3m1!4b1!4m6!3m5!1s0x87528aa97664c2c9:0xae2d873d578b3449!8m2!3d40.7342345!4d-111.859823!16s%2Fg%2F1tcyxxjs?authuser=0&hl=en&entry=ttu&g_ep=EgoyMDI1MDUxMS4wIKXMDSoASAFQAw%3D%3D\"\n============================================================"
    }
  },
  {
    "data": {
      "address": "317 S Main St, Salt Lake City, UT 84111, United States",
      "title": "Eva",
      "category": "Restaurant",
      "city": "Salt Lake City",
      "google_map_link": "https://www.google.com/maps/place/Eva/data=!4m7!3m6!1s0x8752f510251f94d3:0xdb9d425f743f81b8!8m2!3d40.7623032!4d-111.8908365!16s%2Fg%2F1txy2ty_!19sChIJ05QfJRD1UocRuIE_dF9Cnds?authuser=0&hl=en&rclk=1",
      "workhours": "Tuesday, 5 to 10 pm; Wednesday, 5 to 10 pm; Thursday, 5 to 10 pm; Friday, 5 to 10 pm; Saturday, 5 to 10 pm; Sunday, 5 to 10 pm; Monday, 5 to 10 pm. Hide open hours for the week",
      "latitude": "",
      "longitude": -111.8908365,
      "phone": "+1 801-359-8447",
      "avg_rating": "4.6",
      "rating_count": "923",
      "state": "Utah",
      "website": "evaslc.com"
    },
    "errors": {
      "latitude": "page.waitForURL: Timeout 10000ms exceeded.\n=========================== logs ===========================\nwaiting for navigation until \"load\"\n  navigated to \"https://www.google.com/maps/place/Eva/@40.7623032,-111.8908365,17z/data=!3m1!4b1!4m6!3m5!1s0x8752f510251f94d3:0xdb9d425f743f81b8!8m2!3d40.7623032!4d-111.8908365!16s%2Fg%2F1txy2ty_?authuser=0&hl=en&entry=ttu&g_ep=EgoyMDI1MDUxMS4wIKXMDSoASAFQAw%3D%3D\"\n============================================================"
    }
  },
  {
    "data": {
      "address": "317 Main St, Park City, UT 84060, United States",
      "title": "The Eating Establishment",
      "category": "Breakfast restaurant",
      "city": "Park City",
      "google_map_link": "https://www.google.com/maps/place/The+Eating+Establishment/data=!4m7!3m6!1s0x875272bc270593ed:0x1b74e5e28ee8a3e2!8m2!3d40.642271!4d-111.4952383!16s%2Fg%2F1tnblm7n!19sChIJ7ZMFJ7xyUocR4qPojuLldBs?authuser=0&hl=en&rclk=1",
      "workhours": "Tuesday, 8 am to 9 pm; Wednesday, 8 am to 9 pm; Thursday, 8 am to 9 pm; Friday, 8 am to 9 pm; Saturday, 8 am to 9 pm; Sunday, 8 am to 9 pm; Monday, 8 am to 9 pm. Hide open hours for the week",
      "latitude": 40.642271,
      "longitude": -111.4952383,
      "phone": "+1 435-649-8284",
      "avg_rating": "4.3",
      "rating_count": "1719",
      "state": "Utah",
      "website": "theeatingestablishment.net"
    },
    "errors": {}
  },
  {
    "data": {
      "address": "2181 S 700 E, Salt Lake City, UT 84106, United States",
      "title": "Olympian Greek & American",
      "category": "Greek restaurant",
      "city": "Salt Lake City",
      "google_map_link": "https://www.google.com/maps/place/Olympian+Greek+%26+American/data=!4m7!3m6!1s0x87528abb63fad25f:0xf345a1fdfd38c5c9!8m2!3d40.7236762!4d-111.870858!16s%2Fg%2F1tg_m30x!19sChIJX9L6Y7uKUocRycU4_f2hRfM?authuser=0&hl=en&rclk=1",
      "workhours": "Tuesday, 8 am to 2 pm; Wednesday, 8 am to 2 pm; Thursday, 8 am to 2 pm; Friday, 8 am to 2 pm; Saturday, 8 am to 2 pm; Sunday, 8 am to 2 pm; Monday, 8 am to 2 pm. Hide open hours for the week",
      "latitude": 40.7236762,
      "longitude": -111.870858,
      "phone": "+1 801-487-1407",
      "avg_rating": "4.6",
      "rating_count": "967",
      "state": "Utah",
      "website": ""
    },
    "errors": {}
  },
  {
    "data": {
      "address": "200 S Central Campus Dr, Salt Lake City, UT 84112, United States",
      "title": "Crimson View",
      "category": "Fine dining restaurant",
      "city": "Salt Lake City",
      "google_map_link": "https://www.google.com/maps/place/Crimson+View/data=!4m7!3m6!1s0x87525f8dbbf226d1:0xc8f69198fb7f5939!8m2!3d40.7651005!4d-111.8468369!16s%2Fg%2F11c6_swmty!19sChIJ0Sbyu41fUocROVl_-5iR9sg?authuser=0&hl=en&rclk=1",
      "workhours": "Tuesday, 10:30 am to 2:30 pm; Wednesday, 10:30 am to 2:30 pm; Thursday, 10:30 am to 2:30 pm; Friday, Closed; Saturday, Closed; Sunday, Closed; Monday, 10:30 am to 2:30 pm. Hide open hours for the week",
      "latitude": 40.7651005,
      "longitude": -111.8468369,
      "phone": "+1 801-581-8191",
      "avg_rating": "4.0",
      "rating_count": "67",
      "state": "Utah",
      "website": "union.utah.edu"
    },
    "errors": {}
  },
  {
    "data": {
      "address": "101 NW State St Ste 104, American Fork, UT 84003, United States",
      "title": "Haku Ramen House",
      "category": "Ramen restaurant",
      "city": "American Fork",
      "google_map_link": "https://www.google.com/maps/place/Haku+Ramen+House/data=!4m7!3m6!1s0x874d81927e986e4b:0x81a3cd2046ea336e!8m2!3d40.3788086!4d-111.8135372!16s%2Fg%2F11h7kvjrcy!19sChIJS26YfpKBTYcRbjPqRiDNo4E?authuser=0&hl=en&rclk=1",
      "workhours": "Tuesday, 11:30 am to 3 pm, 5 to 9 pm; Wednesday, 11:30 am to 3 pm, 5 to 9 pm; Thursday, 11:30 am to 3 pm, 5 to 9 pm; Friday, 11:30 am to 9:30 pm; Saturday, 11:30 am to 9:30 pm; Sunday, Closed; Monday, 11:30 am to 3 pm, 5 to 9 pm. Hide open hours for the week",
      "latitude": 40.3788086,
      "longitude": -111.8135372,
      "phone": "+1 801-756-7106",
      "avg_rating": "4.8",
      "rating_count": "749",
      "state": "Utah",
      "website": ""
    },
    "errors": {}
  },
  {
    "data": {
      "address": "249 E 3300 S, South Salt Lake, UT 84115, United States",
      "title": "Old Bridge Cafe",
      "category": "Family restaurant",
      "city": "South Salt Lake",
      "google_map_link": "https://www.google.com/maps/place/Old+Bridge+Cafe/data=!4m7!3m6!1s0x87528af460387d6b:0xe5861fa5a96bafeb!8m2!3d40.70017!4d-111.8839001!16s%2Fg%2F1tj33m6y!19sChIJa304YPSKUocR669rqaUfhuU?authuser=0&hl=en&rclk=1",
      "workhours": "Tuesday, 10 am to 8 pm; Wednesday, 10 am to 8 pm; Thursday, 10 am to 8 pm; Friday, 10 am to 8 pm; Saturday, 10 am to 8 pm; Sunday, Closed; Monday, 10 am to 8 pm. Hide open hours for the week",
      "latitude": 40.70017,
      "longitude": -111.8839001,
      "phone": "+1 801-466-4330",
      "avg_rating": "4.8",
      "rating_count": "725",
      "state": "Utah",
      "website": "facebook.com"
    },
    "errors": {}
  },
  {
    "data": {
      "address": "9236 Village Shop Dr, Sandy, UT 84070, United States",
      "title": "Jim's",
      "category": "American restaurant",
      "city": "Sandy",
      "google_map_link": "https://www.google.com/maps/place/Jim's/@40.5838468,-111.8631791,17z/data=!3m1!4b1!4m6!3m5!1s0x875287b62d37a07b:0x8f4cc53f4c7672b4!8m2!3d40.5838468!4d-111.8631791!16s%2Fg%2F1tdvf1c0?authuser=0&hl=en&entry=ttu&g_ep=EgoyMDI1MDUxMS4wIKXMDSoASAFQAw%3D%3D",
      "workhours": "Tuesday, 7 am to 9 pm; Wednesday, 7 am to 9 pm; Thursday, 7 am to 9 pm; Friday, 7 am to 9 pm; Saturday, 7 am to 9 pm; Sunday, 7 am to 9 pm; Monday, 7 am to 9 pm. Hide open hours for the week",
      "latitude": 40.5838468,
      "longitude": -111.8631791,
      "phone": "+1 801-553-8100",
      "avg_rating": "4.4",
      "rating_count": "1768",
      "state": "Utah",
      "website": "jimsfamilyrestaurant.com"
    },
    "errors": {}
  },
  {
    "data": {
      "address": "905 E 900 S, Salt Lake City, UT 84105, United States",
      "title": "Vessel Kitchen",
      "category": "Restaurant",
      "city": "Salt Lake City",
      "google_map_link": "https://www.google.com/maps/place/Vessel+Kitchen/data=!4m7!3m6!1s0x8752f5dcf3e361e9:0x3457bd45a2234b0d!8m2!3d40.7500795!4d-111.8648397!16s%2Fg%2F11hfyhl6t_!19sChIJ6WHj89z1UocRDUsjokW9VzQ?authuser=0&hl=en&rclk=1",
      "workhours": "Tuesday, 11 am to 9 pm; Wednesday, 11 am to 9 pm; Thursday, 11 am to 9 pm; Friday, 11 am to 9 pm; Saturday, 11 am to 9 pm; Sunday, 11 am to 9 pm; Monday, 11 am to 9 pm. Hide open hours for the week",
      "latitude": 40.7500795,
      "longitude": -111.8648397,
      "phone": "+1 801-810-1950",
      "avg_rating": "4.5",
      "rating_count": "855",
      "state": "Utah",
      "website": "vesselkitchen.com"
    },
    "errors": {}
  },
  {
    "data": {
      "address": "546 Main St, Eureka, UT 84628, United States",
      "title": "B's Hangout",
      "category": "American restaurant",
      "city": "Mammoth",
      "google_map_link": "https://www.google.com/maps/place/B%27s+Hangout/data=!4m7!3m6!1s0x874d110446fde897:0x16ac17af4fea8f3b!8m2!3d39.9589899!4d-112.1030535!16s%2Fg%2F11cnwgsd_z!19sChIJl-j9RgQRTYcRO4_qT68XrBY?authuser=0&hl=en&rclk=1",
      "workhours": "Tuesday, 11 am to 8 pm; Wednesday, 11 am to 8 pm; Thursday, 11 am to 8 pm; Friday, 11 am to 8 pm; Saturday, 11 am to 8 pm; Sunday, Closed; Monday, Closed. Hide open hours for the week",
      "latitude": 39.9589899,
      "longitude": -112.1030535,
      "phone": "+1 435-433-2337",
      "avg_rating": "4.7",
      "rating_count": "279",
      "state": "Utah",
      "website": ""
    },
    "errors": {}
  },
  {
    "data": {
      "address": "469 E 300 S, Salt Lake City, UT 84111, United States",
      "title": "The Other Place Restaurant",
      "category": "Greek restaurant",
      "city": "Salt Lake City",
      "google_map_link": "https://www.google.com/maps/place/The+Other+Place+Restaurant/data=!4m7!3m6!1s0x8752f51496fd2a7f:0x58b6427f06e89439!8m2!3d40.7630458!4d-111.8773772!16s%2Fg%2F1tvw5dpp!19sChIJfyr9lhT1UocROZToBn9Ctlg?authuser=0&hl=en&rclk=1",
      "workhours": "Tuesday, 8 am to 9 pm; Wednesday, 8 am to 9 pm; Thursday, 8 am to 9 pm; Friday, 8 am to 9 pm; Saturday, 8 am to 9 pm; Sunday, 8 am to 9 pm; Monday, Closed. Hide open hours for the week",
      "latitude": "",
      "longitude": "",
      "phone": "+1 801-521-6567",
      "avg_rating": "4.6",
      "rating_count": "2253",
      "state": "Utah",
      "website": "theotherplacerestaurant.com"
    },
    "errors": {
      "latitude": "page.waitForURL: Timeout 10000ms exceeded.\n=========================== logs ===========================\nwaiting for navigation until \"load\"\n  navigated to \"https://www.google.com/maps/place/The+Other+Place+Restaurant/@40.7630458,-111.8773772,17z/data=!3m1!4b1!4m6!3m5!1s0x8752f51496fd2a7f:0x58b6427f06e89439!8m2!3d40.7630458!4d-111.8773772!16s%2Fg%2F1tvw5dpp?authuser=0&hl=en&entry=ttu&g_ep=EgoyMDI1MDUxMS4wIKXMDSoASAFQAw%3D%3D\"\n============================================================",
      "longitude": "page.waitForURL: Timeout 10000ms exceeded."
    }
  },
  {
    "data": {
      "address": "77 W 200 S #100, Salt Lake City, UT 84101, United States",
      "title": "Matteo Ristorante Italiano",
      "category": "Italian restaurant",
      "city": "Salt Lake City",
      "google_map_link": "https://www.google.com/maps/place/Matteo+Ristorante+Italiano/data=!4m7!3m6!1s0x8752f5823e8cb2ff:0x43f3b775db59834c!8m2!3d40.7646925!4d-111.8935288!16s%2Fg%2F11v0t5gc38!19sChIJ_7KMPoL1UocRTINZ23W380M?authuser=0&hl=en&rclk=1",
      "workhours": "Tuesday, 4:30 to 9:30 pm; Wednesday, 4:30 to 9:30 pm; Thursday, 4:30 to 9:30 pm; Friday, 4:30 to 9:30 pm; Saturday, 4:30 to 9:30 pm; Sunday, 4:30 to 9:30 pm; Monday, 4:30 to 9:30 pm. Hide open hours for the week",
      "latitude": 40.7646925,
      "longitude": -111.8935288,
      "phone": "+1 385-549-1992",
      "avg_rating": "4.7",
      "rating_count": "478",
      "state": "Utah",
      "website": "matteoutah.com"
    },
    "errors": {}
  },
  {
    "data": {
      "address": "2000 Cir of Hope Dr, Salt Lake City, UT 84112, United States",
      "title": "The Point Restaurant",
      "category": "Grill",
      "city": "Salt Lake City",
      "google_map_link": "https://www.google.com/maps/place/The+Point+Restaurant/data=!4m7!3m6!1s0x87525f97c0e46b09:0x4491462017de184f!8m2!3d40.7723274!4d-111.834732!16s%2Fg%2F1thw2mjl!19sChIJCWvkwJdfUocRTxjeFyBGkUQ?authuser=0&hl=en&rclk=1",
      "workhours": "Tuesday, 7 am to 2 pm; Wednesday, 7 am to 2 pm; Thursday, 7 am to 2 pm; Friday, 7 am to 2 pm; Saturday, Closed; Sunday, Closed; Monday, 7 am to 2 pm. Hide open hours for the week",
      "latitude": 40.7723274,
      "longitude": -111.834732,
      "phone": "+1 801-585-0616",
      "avg_rating": "4.3",
      "rating_count": "161",
      "state": "Utah",
      "website": ""
    },
    "errors": {}
  },
  {
    "data": {
      "address": "1146 E Fort Union Blvd, Midvale, UT 84047, United States",
      "title": "Vessel Kitchen",
      "category": "Restaurant",
      "city": "Midvale",
      "google_map_link": "https://www.google.com/maps/place/Vessel+Kitchen/data=!4m7!3m6!1s0x875289607798bc43:0xd6795328c6f3d4fb!8m2!3d40.6240281!4d-111.8601902!16s%2Fg%2F11h5twd7bl!19sChIJQ7yYd2CJUocR-9TzxihTedY?authuser=0&hl=en&rclk=1",
      "workhours": "Tuesday, 11 am to 9 pm; Wednesday, 11 am to 9 pm; Thursday, 11 am to 9 pm; Friday, 11 am to 9 pm; Saturday, 11 am to 9 pm; Sunday, 11 am to 9 pm; Monday, 11 am to 9 pm. Hide open hours for the week",
      "latitude": 40.6240281,
      "longitude": -111.8601902,
      "phone": "+1 801-337-5055",
      "avg_rating": "4.4",
      "rating_count": "810",
      "state": "Utah",
      "website": "vesselkitchen.com"
    },
    "errors": {}
  },
  {
    "data": {
      "address": "53 W 400 N, Moab, UT 84532, United States",
      "title": "The Broken Oar Restaurant",
      "category": "American restaurant",
      "city": "Moab",
      "google_map_link": "https://www.google.com/maps/place/The+Broken+Oar+Restaurant/data=!4m7!3m6!1s0x8747e1c211df32e7:0x1b3a195db9113b9a!8m2!3d38.5790618!4d-109.5519086!16s%2Fg%2F1t_hzgdy!19sChIJ5zLfEcLhR4cRmjsRuV0ZOhs?authuser=0&hl=en&rclk=1",
      "workhours": "Tuesday, 4:30 to 9 pm; Wednesday, 4:30 to 9 pm; Thursday, 4:30 to 9 pm; Friday, 4:30 to 9 pm; Saturday, 4:30 to 9 pm; Sunday, Closed; Monday, 4:30 to 9 pm. Hide open hours for the week",
      "latitude": 38.5790618,
      "longitude": -109.5519086,
      "phone": "+1 435-259-3127",
      "avg_rating": "4.5",
      "rating_count": "2984",
      "state": "Utah",
      "website": "thebrokenoarmoab.com"
    },
    "errors": {}
  },
  {
    "data": {
      "address": "27649 Old Lincoln Hwy, Wanship, UT 84017, United States",
      "title": "Yuta",
      "category": "Restaurant",
      "city": "Wanship",
      "google_map_link": "https://www.google.com/maps/place/Yuta/data=!4m7!3m6!1s0x87521595ae640001:0x4e82b41e6bb0e5dd!8m2!3d40.8130586!4d-111.4457247!16s%2Fg%2F11h3v670s0!19sChIJAQBkrpUVUocR3eWwax60gk4?authuser=0&hl=en&rclk=1",
      "workhours": "Tuesday, 7 am to 9 pm; Wednesday, 7 am to 9 pm; Thursday, 7 am to 9 pm; Friday, 7 am to 9 pm; Saturday, 7 am to 9 pm; Sunday, 7 am to 9 pm; Monday, 7 am to 9 pm. Hide open hours for the week",
      "latitude": 40.8130586,
      "longitude": -111.4457247,
      "phone": "+1 435-336-6420",
      "avg_rating": "4.4",
      "rating_count": "62",
      "state": "Utah",
      "website": "aubergeresorts.com"
    },
    "errors": {}
  },
  {
    "data": {
      "address": "341 S Main St STE 101, Salt Lake City, UT 84111, United States",
      "title": "Felt Bar & Eatery",
      "category": "Cocktail bar",
      "city": "Salt Lake City",
      "google_map_link": "https://www.google.com/maps/place/Felt+Bar+%26+Eatery/data=!4m7!3m6!1s0x8752f5d6d3d14905:0xde01b627634aea6e!8m2!3d40.7618227!4d-111.890594!16s%2Fg%2F11vr5_03cv!19sChIJBUnR09b1UocRbupKYye2Ad4?authuser=0&hl=en&rclk=1",
      "workhours": "",
      "latitude": "",
      "longitude": "",
      "phone": "+1 385-267-1093",
      "avg_rating": "4.8",
      "rating_count": "176",
      "state": "Utah",
      "website": "feltslc.com"
    },
    "errors": {
      "latitude": "page.waitForURL: Timeout 10000ms exceeded.\n=========================== logs ===========================\nwaiting for navigation until \"load\"\n  navigated to \"https://www.google.com/maps/place/Felt+Bar+%26+Eatery/@40.7618227,-111.890594,17z/data=!3m1!4b1!4m6!3m5!1s0x8752f5d6d3d14905:0xde01b627634aea6e!8m2!3d40.7618227!4d-111.890594!16s%2Fg%2F11vr5_03cv?authuser=0&hl=en&entry=ttu&g_ep=EgoyMDI1MDUxMS4wIKXMDSoASAFQAw%3D%3D\"\n============================================================",
      "longitude": "page.waitForURL: Timeout 10000ms exceeded."
    }
  },
  {
    "data": {
      "address": "735 S Main St, Nephi, UT 84648, United States",
      "title": "Lisa's Country Kitchen",
      "category": "American restaurant",
      "city": "Nephi",
      "google_map_link": "https://www.google.com/maps/place/Lisa%27s+Country+Kitchen/data=!4m7!3m6!1s0x874c56368a4f29fd:0x7759324d5304d2cb!8m2!3d39.697651!4d-111.835526!16s%2Fg%2F1tdbfxct!19sChIJ_SlPijZWTIcRy9IEU00yWXc?authuser=0&hl=en&rclk=1",
      "workhours": "Tuesday, 7:30 am to 9:30 pm; Wednesday, 7:30 am to 9:30 pm; Thursday, 7:30 am to 9:30 pm; Friday, 7:30 am to 9:30 pm; Saturday, 7:30 am to 9:30 pm; Sunday, Closed; Monday, 7:30 am to 9:30 pm. Hide open hours for the week",
      "latitude": "",
      "longitude": "",
      "phone": "+1 435-623-7900",
      "avg_rating": "4.2",
      "rating_count": "1502",
      "state": "Utah",
      "website": "facebook.com"
    },
    "errors": {
      "latitude": "page.waitForURL: Timeout 10000ms exceeded.\n=========================== logs ===========================\nwaiting for navigation until \"load\"\n  navigated to \"https://www.google.com/maps/place/Lisa's+Country+Kitchen/@39.697651,-111.835526,17z/data=!3m1!4b1!4m6!3m5!1s0x874c56368a4f29fd:0x7759324d5304d2cb!8m2!3d39.697651!4d-111.835526!16s%2Fg%2F1tdbfxct?authuser=0&hl=en&entry=ttu&g_ep=EgoyMDI1MDUxMS4wIKXMDSoASAFQAw%3D%3D\"\n============================================================",
      "longitude": "page.waitForURL: Timeout 10000ms exceeded."
    }
  },
  {
    "data": {
      "address": "20 S 400 W #2020, Salt Lake City, UT 84101, United States",
      "title": "Fleming’s Prime Steakhouse & Wine Bar",
      "category": "Fine dining restaurant",
      "city": "Salt Lake City",
      "google_map_link": "https://www.google.com/maps/place/Fleming%E2%80%99s+Prime+Steakhouse+%26+Wine+Bar/data=!4m7!3m6!1s0x8752f501b68f63e1:0xb648f58eccb3b888!8m2!3d40.7687399!4d-111.9033043!16s%2Fg%2F11b5pjj5tp!19sChIJ4WOPtgH1UocRiLizzI71SLY?authuser=0&hl=en&rclk=1",
      "workhours": "",
      "latitude": "",
      "longitude": -111.9033043,
      "phone": "+1 801-355-3704",
      "avg_rating": "4.5",
      "rating_count": "1775",
      "state": "Utah",
      "website": "flemingssteakhouse.com"
    },
    "errors": {
      "latitude": "page.waitForURL: Timeout 10000ms exceeded.\n=========================== logs ===========================\nwaiting for navigation until \"load\"\n  navigated to \"https://www.google.com/maps/place/Fleming%E2%80%99s+Prime+Steakhouse+%26+Wine+Bar/@40.7687399,-111.9033043,17z/data=!3m1!4b1!4m6!3m5!1s0x8752f501b68f63e1:0xb648f58eccb3b888!8m2!3d40.7687399!4d-111.9033043!16s%2Fg%2F11b5pjj5tp?authuser=0&hl=en&entry=ttu&g_ep=EgoyMDI1MDUxMS4wIKXMDSoASAFQAw%3D%3D\"\n============================================================"
    }
  },
  {
    "data": {
      "address": "1291 S 1100 E, Salt Lake City, UT 84105, United States",
      "title": "Hub and Spoke Diner",
      "category": "Diner",
      "city": "Salt Lake City",
      "google_map_link": "https://www.google.com/maps/place/Hub+and+Spoke+Diner/data=!4m7!3m6!1s0x8752f5551c58e951:0xf4aff47160bddce4!8m2!3d40.7417568!4d-111.8591855!16s%2Fg%2F11b7hm_j8n!19sChIJUelYHFX1UocR5Ny9YHH0r_Q?authuser=0&hl=en&rclk=1",
      "workhours": "Tuesday, 8 am to 3 pm; Wednesday, 8 am to 3 pm; Thursday, 8 am to 3 pm; Friday, 8 am to 3 pm; Saturday, 8 am to 4 pm; Sunday, 8 am to 4 pm; Monday, 8 am to 3 pm. Hide open hours for the week",
      "latitude": "",
      "longitude": -111.8591855,
      "phone": "+1 801-487-0698",
      "avg_rating": "4.4",
      "rating_count": "2744",
      "state": "Utah",
      "website": "hubandspokediner.com"
    },
    "errors": {
      "latitude": "page.waitForURL: Timeout 10000ms exceeded.\n=========================== logs ===========================\nwaiting for navigation until \"load\"\n  navigated to \"https://www.google.com/maps/place/Hub+and+Spoke+Diner/@40.7417568,-111.8591855,17z/data=!3m1!4b1!4m6!3m5!1s0x8752f5551c58e951:0xf4aff47160bddce4!8m2!3d40.7417568!4d-111.8591855!16s%2Fg%2F11b7hm_j8n?authuser=0&hl=en&entry=ttu&g_ep=EgoyMDI1MDUxMS4wIKXMDSoASAFQAw%3D%3D\"\n============================================================"
    }
  },
  {
    "data": {
      "address": "751 Lower Main Street, Park City, UT 84060, United States",
      "title": "Butcher's Chop House & Bar",
      "category": "Steak house",
      "city": "Park City",
      "google_map_link": "https://www.google.com/maps/place/Butcher%27s+Chop+House+%26+Bar/data=!4m7!3m6!1s0x875272a2b7ab7f9d:0xad3ba4b37ad7adfc!8m2!3d40.6469924!4d-111.4985216!16s%2Fg%2F1tqtb4f9!19sChIJnX-rt6JyUocR_K3XerOkO60?authuser=0&hl=en&rclk=1",
      "workhours": "Tuesday, 4 to 10 pm; Wednesday, 4 to 10 pm; Thursday, 4 to 10 pm; Friday, 4 to 10 pm; Saturday, 4 to 10 pm; Sunday, 4 to 10 pm; Monday, 4 to 10 pm. Hide open hours for the week",
      "latitude": "",
      "longitude": -111.4985216,
      "phone": "+1 435-647-0040",
      "avg_rating": "4.4",
      "rating_count": "1169",
      "state": "Utah",
      "website": "butcherschophouse.com"
    },
    "errors": {
      "latitude": "page.waitForURL: Timeout 10000ms exceeded.\n=========================== logs ===========================\nwaiting for navigation until \"load\"\n  navigated to \"https://www.google.com/maps/place/Butcher's+Chop+House+%26+Bar/@40.6469924,-111.4985216,17z/data=!3m1!4b1!4m6!3m5!1s0x875272a2b7ab7f9d:0xad3ba4b37ad7adfc!8m2!3d40.6469924!4d-111.4985216!16s%2Fg%2F1tqtb4f9?authuser=0&hl=en&entry=ttu&g_ep=EgoyMDI1MDUxMS4wIKXMDSoASAFQAw%3D%3D\"\n============================================================"
    }
  },
  {
    "data": {
      "address": "12544 Pasture Rd Ste E, Riverton, UT 84096, United States",
      "title": "Aunty's Hawaiian Kitchen - Riverton",
      "category": "Hawaiian restaurant",
      "city": "Riverton",
      "google_map_link": "https://www.google.com/maps/place/Aunty%27s+Hawaiian+Kitchen+-+Riverton/data=!4m7!3m6!1s0x87528527228f3bb9:0x943e0f0198f4a92f!8m2!3d40.5238723!4d-111.9869487!16s%2Fg%2F11rv8025td!19sChIJuTuPIieFUocRL6n0mAEPPpQ?authuser=0&hl=en&rclk=1",
      "workhours": "Tuesday, 11 am to 2:30 pm, 5 to 8:30 pm; Wednesday, 11 am to 2:30 pm, 5 to 8:30 pm; Thursday, 11 am to 2:30 pm, 5 to 8:30 pm; Friday, 11 am to 2:30 pm, 5 to 8:30 pm; Saturday, 11 am to 8:30 pm; Sunday, Closed; Monday, 11 am to 2:30 pm, 5 to 8:30 pm. Hide open hours for the week",
      "latitude": "",
      "longitude": -111.9869487,
      "phone": "+1 385-296-7065",
      "avg_rating": "4.8",
      "rating_count": "534",
      "state": "Utah",
      "website": "auntyshawaiiankitchen.com"
    },
    "errors": {
      "latitude": "page.waitForURL: Timeout 10000ms exceeded.\n=========================== logs ===========================\nwaiting for navigation until \"load\"\n  navigated to \"https://www.google.com/maps/place/Aunty's+Hawaiian+Kitchen+-+Riverton/@40.5238723,-111.9869487,17z/data=!3m1!4b1!4m6!3m5!1s0x87528527228f3bb9:0x943e0f0198f4a92f!8m2!3d40.5238723!4d-111.9869487!16s%2Fg%2F11rv8025td?authuser=0&hl=en&entry=ttu&g_ep=EgoyMDI1MDUxMS4wIKXMDSoASAFQAw%3D%3D\"\n============================================================"
    }
  },
  {
    "data": {
      "address": "32 Exchange Pl, Salt Lake City, UT 84111, United States",
      "title": "Twist Bar - Bistro - Social",
      "category": "Bar & grill",
      "city": "Salt Lake City",
      "google_map_link": "https://www.google.com/maps/place/Twist+Bar+-+Bistro+-+Social/data=!4m7!3m6!1s0x8752f5104eeaee8d:0xd7096ff2a47248c0!8m2!3d40.761315!4d-111.890123!16s%2Fg%2F11b7rxhkfh!19sChIJje7qThD1UocRwEhypPJvCdc?authuser=0&hl=en&rclk=1",
      "workhours": "Tuesday, 5 pm to 1 am; Wednesday, 5 pm to 1 am; Thursday, 5 pm to 1 am; Friday, 5 pm to 1 am; Saturday, 5 pm to 1 am; Sunday, 5 pm to 1 am; Monday, Closed. Hide open hours for the week",
      "latitude": "",
      "longitude": -111.890123,
      "phone": "+1 801-322-3200",
      "avg_rating": "4.1",
      "rating_count": "1473",
      "state": "Utah",
      "website": "twistslc.com"
    },
    "errors": {
      "latitude": "page.waitForURL: Timeout 10000ms exceeded.\n=========================== logs ===========================\nwaiting for navigation until \"load\"\n  navigated to \"https://www.google.com/maps/place/Twist+Bar+-+Bistro+-+Social/@40.761315,-111.890123,17z/data=!3m1!4b1!4m6!3m5!1s0x8752f5104eeaee8d:0xd7096ff2a47248c0!8m2!3d40.761315!4d-111.890123!16s%2Fg%2F11b7rxhkfh?authuser=0&hl=en&entry=ttu&g_ep=EgoyMDI1MDUxMS4wIKXMDSoASAFQAw%3D%3D\"\n============================================================"
    }
  },
  {
    "data": {
      "address": "132 S Main St, Salt Lake City, UT 84101, United States",
      "title": "Antica Roma",
      "category": "Restaurant",
      "city": "Salt Lake City",
      "google_map_link": "https://www.google.com/maps/place/Antica+Roma/data=!4m7!3m6!1s0x8752f52759d2f929:0xe4888b39b072c727!8m2!3d40.766295!4d-111.891341!16s%2Fg%2F11tmxhp29d!19sChIJKfnSWSf1UocRJ8dysDmLiOQ?authuser=0&hl=en&rclk=1",
      "workhours": "Tuesday, 5 to 9 pm; Wednesday, 5 to 9 pm; Thursday, 5 to 9 pm; Friday, Closed; Saturday, 5 to 9 pm; Sunday, Closed; Monday, 5 to 9 pm. Hide open hours for the week",
      "latitude": 40.766295,
      "longitude": -111.891341,
      "phone": "+1 801-532-0500",
      "avg_rating": "4.6",
      "rating_count": "286",
      "state": "Utah",
      "website": "anticaroma.us"
    },
    "errors": {}
  },
  {
    "data": {
      "address": "725 E 12300 S, Draper, UT 84020, United States",
      "title": "Gourmandise",
      "category": "European restaurant",
      "city": "Draper",
      "google_map_link": "https://www.google.com/maps/place/Gourmandise/data=!4m7!3m6!1s0x87528758af91471f:0xcd536537f6b1dca0!8m2!3d40.5272482!4d-111.8706298!16s%2Fg%2F11f7nl6qbj!19sChIJH0eRr1iHUocRoNyx9jdlU80?authuser=0&hl=en&rclk=1",
      "workhours": "Tuesday, 8 am to 9 pm; Wednesday, 8 am to 9 pm; Thursday, 8 am to 9 pm; Friday, 8 am to 10 pm; Saturday, 8 am to 10 pm; Sunday, 9 am to 3 pm; Monday, 8 am to 9 pm. Hide open hours for the week",
      "latitude": 40.5272482,
      "longitude": -111.8706298,
      "phone": "+1 801-571-1500",
      "avg_rating": "4.3",
      "rating_count": "2520",
      "state": "Utah",
      "website": "gourmandise.com"
    },
    "errors": {}
  },
  {
    "data": {
      "address": "334 E 800 S, Orem, UT 84097, United States",
      "title": "Pitada Brazil",
      "category": "Brazilian restaurant",
      "city": "Orem",
      "google_map_link": "https://www.google.com/maps/place/Pitada+Brazil/data=!4m7!3m6!1s0x874d9b29a232d7b9:0x1b68a150e23173e8!8m2!3d40.2819647!4d-111.6873935!16s%2Fg%2F11s7zjn05m!19sChIJudcyoimbTYcR6HMx4lChaBs?authuser=0&hl=en&rclk=1",
      "workhours": "Tuesday, 9 am to 5 pm; Wednesday, 11:30 am to 7 pm; Thursday, 11:30 am to 7 pm; Friday, 11:30 am to 8 pm; Saturday, 11:30 am to 8 pm; Sunday, Closed; Monday, 11:30 am to 7 pm. Hide open hours for the week",
      "latitude": "",
      "longitude": -111.6873935,
      "phone": "+1 385-241-2124",
      "avg_rating": "4.9",
      "rating_count": "895",
      "state": "Utah",
      "website": "pitadabrazil.com"
    },
    "errors": {
      "latitude": "page.waitForURL: Timeout 10000ms exceeded.\n=========================== logs ===========================\nwaiting for navigation until \"load\"\n  navigated to \"https://www.google.com/maps/place/Pitada+Brazil/@40.2819647,-111.6873935,17z/data=!3m1!4b1!4m6!3m5!1s0x874d9b29a232d7b9:0x1b68a150e23173e8!8m2!3d40.2819647!4d-111.6873935!16s%2Fg%2F11s7zjn05m?authuser=0&hl=en&entry=ttu&g_ep=EgoyMDI1MDUxMS4wIKXMDSoASAFQAw%3D%3D\"\n============================================================"
    }
  },
  {
    "data": {
      "address": "1000 S Main St #102, Salt Lake City, UT 84101, United States",
      "title": "Star of India",
      "category": "Indian restaurant",
      "city": "Salt Lake City",
      "google_map_link": "https://www.google.com/maps/place/Star+of+India/data=!4m7!3m6!1s0x8752f511a9a95c4d:0xecf9cd238cfb8d94!8m2!3d40.7474442!4d-111.8918728!16s%2Fg%2F1v1vdp1b!19sChIJTVypqRH1UocRlI37jCPN-ew?authuser=0&hl=en&rclk=1",
      "workhours": "Tuesday, 11 am to 9:30 pm; Wednesday, 11 am to 9:30 pm; Thursday, 11 am to 9:30 pm; Friday, 11 am to 9:30 pm; Saturday, 11 am to 9:30 pm; Sunday, Closed; Monday, 11 am to 9:30 pm. Hide open hours for the week",
      "latitude": 40.7474442,
      "longitude": -111.8918728,
      "phone": "+1 801-363-7555",
      "avg_rating": "4.5",
      "rating_count": "1864",
      "state": "Utah",
      "website": "starofindiaonline.com"
    },
    "errors": {}
  },
  {
    "data": {
      "address": "600 S 700 E 2nd Floor, Salt Lake City, UT 84102, United States",
      "title": "Rodizio Grill Brazilian Steakhouse Salt Lake City",
      "category": "Brazilian restaurant",
      "city": "Salt Lake City",
      "google_map_link": "https://www.google.com/maps/place/Rodizio+Grill+Brazilian+Steakhouse+Salt+Lake+City/data=!4m7!3m6!1s0x8752f569ce1bb32d:0x9fdd8947a4bb171e!8m2!3d40.756758!4d-111.8717483!16s%2Fg%2F1tcxq4fn!19sChIJLbMbzmn1UocRHhe7pEeJ3Z8?authuser=0&hl=en&rclk=1",
      "workhours": "Tuesday, 12 to 9 pm; Wednesday, 12 to 9 pm; Thursday, 12 to 9 pm; Friday, 12 to 10 pm; Saturday, 11 am to 10 pm; Sunday, 11 am to 9 pm; Monday, 12 to 9 pm. Hide open hours for the week",
      "latitude": "",
      "longitude": -111.8717483,
      "phone": "+1 801-220-0500",
      "avg_rating": "4.7",
      "rating_count": "9638",
      "state": "Utah",
      "website": "rodiziogrill.com"
    },
    "errors": {
      "latitude": "page.waitForURL: Timeout 10000ms exceeded.\n=========================== logs ===========================\nwaiting for navigation until \"load\"\n  navigated to \"https://www.google.com/maps/place/Rodizio+Grill+Brazilian+Steakhouse+Salt+Lake+City/@40.756758,-111.8717483,17z/data=!3m1!4b1!4m6!3m5!1s0x8752f569ce1bb32d:0x9fdd8947a4bb171e!8m2!3d40.756758!4d-111.8717483!16s%2Fg%2F1tcxq4fn?authuser=0&hl=en&entry=ttu&g_ep=EgoyMDI1MDUxMS4wIKXMDSoASAFQAw%3D%3D\"\n============================================================"
    }
  },
  {
    "data": {
      "address": "834 E State St, American Fork, UT 84003, United States",
      "title": "Jim's Family Restaurant",
      "category": "Family restaurant",
      "city": "American Fork",
      "google_map_link": "https://www.google.com/maps/place/Jim%27s+Family+Restaurant/data=!4m7!3m6!1s0x874d8159b58e5239:0xa133073005f6390!8m2!3d40.3710931!4d-111.7755133!16s%2Fg%2F1tj_5qgc!19sChIJOVKOtVmBTYcRkGNfAHMwEwo?authuser=0&hl=en&rclk=1",
      "workhours": "Tuesday, 8 am to 9 pm; Wednesday, 8 am to 9 pm; Thursday, 8 am to 9 pm; Friday, 8 am to 9 pm; Saturday, 7 am to 9 pm; Sunday, 7 am to 9 pm; Monday, 8 am to 9 pm. Hide open hours for the week",
      "latitude": "",
      "longitude": -111.7755133,
      "phone": "+1 801-492-4000",
      "avg_rating": "4.3",
      "rating_count": "2404",
      "state": "Utah",
      "website": "jimsfamilyrestaurant.com"
    },
    "errors": {
      "latitude": "page.waitForURL: Timeout 10000ms exceeded.\n=========================== logs ===========================\nwaiting for navigation until \"load\"\n  navigated to \"https://www.google.com/maps/place/Jim's+Family+Restaurant/@40.3710931,-111.7755133,17z/data=!3m1!4b1!4m6!3m5!1s0x874d8159b58e5239:0xa133073005f6390!8m2!3d40.3710931!4d-111.7755133!16s%2Fg%2F1tj_5qgc?authuser=0&hl=en&entry=ttu&g_ep=EgoyMDI1MDUxMS4wIKXMDSoASAFQAw%3D%3D\"\n============================================================"
    }
  },
  {
    "data": {
      "address": "5 N Main St, Moab, UT 84532, United States",
      "title": "The Spoke on Center",
      "category": "Hamburger restaurant",
      "city": "Moab",
      "google_map_link": "https://www.google.com/maps/place/The+Spoke+on+Center/data=!4m7!3m6!1s0x8747e1eeabd0948d:0xea9b835f2d3b1e8!8m2!3d38.5734627!4d-109.5510855!16s%2Fg%2F11b7lm9y56!19sChIJjZTQq-7hR4cR6LHT8jW4qQ4?authuser=0&hl=en&rclk=1",
      "workhours": "Tuesday, 11 am to 10 pm; Wednesday, 11 am to 10 pm; Thursday, 11 am to 10 pm; Friday, 11 am to 10 pm; Saturday, 11 am to 10 pm; Sunday, 11 am to 10 pm; Monday, 11 am to 10 pm. Hide open hours for the week",
      "latitude": "",
      "longitude": -109.5510855,
      "phone": "+1 435-260-7177",
      "avg_rating": "4.2",
      "rating_count": "3225",
      "state": "Utah",
      "website": "thespokemoab.com"
    },
    "errors": {
      "latitude": "page.waitForURL: Timeout 10000ms exceeded.\n=========================== logs ===========================\nwaiting for navigation until \"load\"\n  navigated to \"https://www.google.com/maps/place/The+Spoke+on+Center/@38.5734627,-109.5510855,17z/data=!3m1!4b1!4m6!3m5!1s0x8747e1eeabd0948d:0xea9b835f2d3b1e8!8m2!3d38.5734627!4d-109.5510855!16s%2Fg%2F11b7lm9y56?authuser=0&hl=en&entry=ttu&g_ep=EgoyMDI1MDUxMS4wIKXMDSoASAFQAw%3D%3D\"\n============================================================"
    }
  },
  {
    "data": {
      "address": "2820 E 6200 S, Holladay, UT 84121, United States",
      "title": "Cotton Bottom Inn",
      "category": "Restaurant",
      "city": "Holladay",
      "google_map_link": "https://www.google.com/maps/place/Cotton+Bottom+Inn/data=!4m7!3m6!1s0x875262548715c553:0x7c64d1a32c5114a5!8m2!3d40.6378366!4d-111.8121202!16s%2Fg%2F1thvhdsb!19sChIJU8UVh1RiUocRpRRRLKPRZHw?authuser=0&hl=en&rclk=1",
      "workhours": "Tuesday, 11 am to 10 pm; Wednesday, 11 am to 10 pm; Thursday, 11 am to 10 pm; Friday, 11 am to 10 pm; Saturday, 10:30 am to 10 pm; Sunday, 10:30 am to 10 pm; Monday, 11 am to 10 pm. Hide open hours for the week",
      "latitude": "",
      "longitude": -111.8121202,
      "phone": "+1 801-849-8847",
      "avg_rating": "4.4",
      "rating_count": "1819",
      "state": "Utah",
      "website": "thecottonbottom.com"
    },
    "errors": {
      "latitude": "page.waitForURL: Timeout 10000ms exceeded.\n=========================== logs ===========================\nwaiting for navigation until \"load\"\n  navigated to \"https://www.google.com/maps/place/Cotton+Bottom+Inn/@40.6378366,-111.8121202,17z/data=!3m1!4b1!4m6!3m5!1s0x875262548715c553:0x7c64d1a32c5114a5!8m2!3d40.6378366!4d-111.8121202!16s%2Fg%2F1thvhdsb?authuser=0&hl=en&entry=ttu&g_ep=EgoyMDI1MDUxMS4wIKXMDSoASAFQAw%3D%3D\"\n============================================================"
    }
  },
  {
    "data": {
      "address": "784 Resort Dr #6463, Midway, UT 84049, United States",
      "title": "Z's Restaurant",
      "category": "Restaurant",
      "city": "Midway",
      "google_map_link": "https://www.google.com/maps/place/Z%27s+Restaurant/data=!4m7!3m6!1s0x87527539bb6c8595:0xf82534841131ea5f!8m2!3d40.5254259!4d-111.4886526!16s%2Fg%2F1pp2tl113!19sChIJlYVsuzl1UocRX-oxEYQ0Jfg?authuser=0&hl=en&rclk=1",
      "workhours": "",
      "latitude": "",
      "longitude": -111.4886526,
      "phone": "+1 435-709-9572",
      "avg_rating": "4.1",
      "rating_count": "513",
      "state": "Utah",
      "website": "zermattresort.com"
    },
    "errors": {
      "latitude": "page.waitForURL: Timeout 10000ms exceeded.\n=========================== logs ===========================\nwaiting for navigation until \"load\"\n  navigated to \"https://www.google.com/maps/place/Z's+Restaurant/@40.5254259,-111.4886526,17z/data=!3m1!4b1!4m6!3m5!1s0x87527539bb6c8595:0xf82534841131ea5f!8m2!3d40.5254259!4d-111.4886526!16s%2Fg%2F1pp2tl113?authuser=0&hl=en&entry=ttu&g_ep=EgoyMDI1MDUxMS4wIKXMDSoASAFQAw%3D%3D\"\n============================================================"
    }
  },
  {
    "data": {
      "address": "1100 W 7800 S #18C, West Jordan, UT 84088, United States",
      "title": "Mystique Dining at Gardner Village",
      "category": "Fine dining restaurant",
      "city": "West Jordan",
      "google_map_link": "https://www.google.com/maps/place/Mystique+Dining+at+Gardner+Village/data=!4m7!3m6!1s0x8752898eca444a6d:0x6f3dc824b6110b2f!8m2!3d40.6104811!4d-111.9233645!16s%2Fg%2F11h3cby4x6!19sChIJbUpEyo6JUocRLwsRtiTIPW8?authuser=0&hl=en&rclk=1",
      "workhours": "Tuesday, 5 to 8 pm; Wednesday, 5 to 8 pm; Thursday, 5 to 8 pm; Friday, 5 to 11 pm; Saturday, 5 to 11 pm; Sunday, Closed; Monday, 5 to 8 pm. Hide open hours for the week",
      "latitude": "",
      "longitude": -111.9233645,
      "phone": "+1 916-293-9000",
      "avg_rating": "4.6",
      "rating_count": "582",
      "state": "Utah",
      "website": "mystiquedining.com"
    },
    "errors": {
      "latitude": "page.waitForURL: Timeout 10000ms exceeded.\n=========================== logs ===========================\nwaiting for navigation until \"load\"\n  navigated to \"https://www.google.com/maps/place/Mystique+Dining+at+Gardner+Village/@40.6104811,-111.9233645,17z/data=!3m1!4b1!4m6!3m5!1s0x8752898eca444a6d:0x6f3dc824b6110b2f!8m2!3d40.6104811!4d-111.9233645!16s%2Fg%2F11h3cby4x6?authuser=0&hl=en&entry=ttu&g_ep=EgoyMDI1MDUxMS4wIKXMDSoASAFQAw%3D%3D\"\n============================================================"
    }
  },
  {
    "data": {
      "address": "2222 W 3500 S b7, West Valley City, UT 84119, United States",
      "title": "Tuk Tuk’s of West Valley",
      "category": "Thai restaurant",
      "city": "West Valley City",
      "google_map_link": "https://www.google.com/maps/place/Tuk+Tuk%E2%80%99s+of+West+Valley/data=!4m7!3m6!1s0x87528b67e26ee0fb:0xdc0b9b01a17dbe7e!8m2!3d40.6975025!4d-111.947697!16s%2Fg%2F11hzph25vl!19sChIJ--Bu4meLUocRfr59oQGbC9w?authuser=0&hl=en&rclk=1",
      "workhours": "Tuesday, 11 am to 2:30 pm, 5 to 8:30 pm; Wednesday, 11 am to 2:30 pm, 5 to 8:30 pm; Thursday, 11 am to 2:30 pm, 5 to 8:30 pm; Friday, 11 am to 2:30 pm, 5 to 8:30 pm; Saturday, 11 am to 2:30 pm, 5 to 8:30 pm; Sunday, Closed; Monday, 11 am to 2:30 pm, 5 to 8:30 pm. Hide open hours for the week",
      "latitude": "",
      "longitude": -111.947697,
      "phone": "+1 385-227-8347",
      "avg_rating": "4.6",
      "rating_count": "901",
      "state": "Utah",
      "website": "tuktuks-slc.com"
    },
    "errors": {
      "latitude": "page.waitForURL: Timeout 10000ms exceeded.\n=========================== logs ===========================\nwaiting for navigation until \"load\"\n  navigated to \"https://www.google.com/maps/place/Tuk+Tuk%E2%80%99s+of+West+Valley/@40.6975025,-111.947697,17z/data=!3m1!4b1!4m6!3m5!1s0x87528b67e26ee0fb:0xdc0b9b01a17dbe7e!8m2!3d40.6975025!4d-111.947697!16s%2Fg%2F11hzph25vl?authuser=0&hl=en&entry=ttu&g_ep=EgoyMDI1MDUxMS4wIKXMDSoASAFQAw%3D%3D\"\n============================================================"
    }
  },
  {
    "data": {
      "address": "380 N 850 E, Lehi, UT 84043, United States",
      "title": "Ednas Market & Grille - Lehi",
      "category": "Restaurant",
      "city": "Lehi",
      "google_map_link": "https://www.google.com/maps/place/Ednas+Market+%26+Grille+-+Lehi/data=!4m7!3m6!1s0x874d81c85bb88d17:0x347d7d6a441558ac!8m2!3d40.3921733!4d-111.8364884!16s%2Fg%2F11pcp9h2dh!19sChIJF424W8iBTYcRrFgVRGp9fTQ?authuser=0&hl=en&rclk=1",
      "workhours": "Tuesday, 11 am to 8:15 pm; Wednesday, 11 am to 8:15 pm; Thursday, 11 am to 8:15 pm; Friday, 11 am to 9 pm; Saturday, 11 am to 9 pm; Sunday, Closed; Monday, 11 am to 8:15 pm. Hide open hours for the week",
      "latitude": "",
      "longitude": -111.8364884,
      "phone": "+1 385-287-0887",
      "avg_rating": "4.5",
      "rating_count": "596",
      "state": "Utah",
      "website": "ednasgrill.com"
    },
    "errors": {
      "latitude": "page.waitForURL: Timeout 10000ms exceeded.\n=========================== logs ===========================\nwaiting for navigation until \"load\"\n  navigated to \"https://www.google.com/maps/place/Ednas+Market+%26+Grille+-+Lehi/@40.3921733,-111.8364884,17z/data=!3m1!4b1!4m6!3m5!1s0x874d81c85bb88d17:0x347d7d6a441558ac!8m2!3d40.3921733!4d-111.8364884!16s%2Fg%2F11pcp9h2dh?authuser=0&hl=en&entry=ttu&g_ep=EgoyMDI1MDUxMS4wIKXMDSoASAFQAw%3D%3D\"\n============================================================"
    }
  },
  {
    "data": {
      "address": "54 W 1700 S, Salt Lake City, UT 84115, United States",
      "title": "Sweet Lake Biscuits & Limeade",
      "category": "Breakfast restaurant",
      "city": "Salt Lake City",
      "google_map_link": "https://www.google.com/maps/place/Sweet+Lake+Biscuits+%26+Limeade/data=!4m7!3m6!1s0x8752f52d5461c70d:0xe83b5f48b7c80681!8m2!3d40.7337019!4d-111.8928551!16s%2Fg%2F11cnbz379p!19sChIJDcdhVC31UocRgQbIt0hfO-g?authuser=0&hl=en&rclk=1",
      "workhours": "Tuesday, 8:30 am to 3 pm; Wednesday, 8:30 am to 3 pm; Thursday, 8:30 am to 3 pm; Friday, 8:30 am to 3 pm; Saturday, 8 am to 4 pm; Sunday, 8 am to 4 pm; Monday, 8:30 am to 3 pm. Hide open hours for the week",
      "latitude": "",
      "longitude": -111.8928551,
      "phone": "+1 801-953-1978",
      "avg_rating": "4.4",
      "rating_count": "3240",
      "state": "Utah",
      "website": "sweetlakefresh.com"
    },
    "errors": {
      "latitude": "page.waitForURL: Timeout 10000ms exceeded.\n=========================== logs ===========================\nwaiting for navigation until \"load\"\n  navigated to \"https://www.google.com/maps/place/Sweet+Lake+Biscuits+%26+Limeade/@40.7337019,-111.8928551,17z/data=!3m1!4b1!4m6!3m5!1s0x8752f52d5461c70d:0xe83b5f48b7c80681!8m2!3d40.7337019!4d-111.8928551!16s%2Fg%2F11cnbz379p?authuser=0&hl=en&entry=ttu&g_ep=EgoyMDI1MDUxMS4wIKXMDSoASAFQAw%3D%3D\"\n============================================================"
    }
  },
  {
    "data": {
      "address": "3524 S 2200 W, West Valley City, UT 84119, United States",
      "title": "Cafe Silvestre",
      "category": "Mexican restaurant",
      "city": "West Valley City",
      "google_map_link": "https://www.google.com/maps/place/Cafe+Silvestre/data=!4m7!3m6!1s0x87528b63ad90f31d:0x7f880328c0472aec!8m2!3d40.6960969!4d-111.9488151!16s%2Fg%2F1v_z4t86!19sChIJHfOQrWOLUocR7CpHwCgDiH8?authuser=0&hl=en&rclk=1",
      "workhours": "",
      "latitude": "",
      "longitude": -111.9488151,
      "phone": "+1 801-972-5582",
      "avg_rating": "4.6",
      "rating_count": "1714",
      "state": "Utah",
      "website": "cafesilvestrerestaurants.com"
    },
    "errors": {
      "latitude": "page.waitForURL: Timeout 10000ms exceeded.\n=========================== logs ===========================\nwaiting for navigation until \"load\"\n  navigated to \"https://www.google.com/maps/place/Cafe+Silvestre/@40.6960969,-111.9488151,17z/data=!3m1!4b1!4m6!3m5!1s0x87528b63ad90f31d:0x7f880328c0472aec!8m2!3d40.6960969!4d-111.9488151!16s%2Fg%2F1v_z4t86?authuser=0&hl=en&entry=ttu&g_ep=EgoyMDI1MDUxMS4wIKXMDSoASAFQAw%3D%3D\"\n============================================================"
    }
  },
  {
    "data": {
      "address": "1904 W 5400 S, Taylorsville, UT 84129, United States",
      "title": "Texas Roadhouse",
      "category": "Steak house",
      "city": "Taylorsville",
      "google_map_link": "https://www.google.com/maps/place/Texas+Roadhouse/data=!4m7!3m6!1s0x87528bfb9df074cf:0x548b15973c8842cf!8m2!3d40.6542437!4d-111.9430149!16s%2Fg%2F1v_z9d27!19sChIJz3TwnfuLUocRz0KIPJcVi1Q?authuser=0&hl=en&rclk=1",
      "workhours": "",
      "latitude": "",
      "longitude": -111.9430149,
      "phone": "+1 801-955-7514",
      "avg_rating": "4.4",
      "rating_count": "8060",
      "state": "Utah",
      "website": "texasroadhouse.com"
    },
    "errors": {
      "latitude": "page.waitForURL: Timeout 10000ms exceeded.\n=========================== logs ===========================\nwaiting for navigation until \"load\"\n  navigated to \"https://www.google.com/maps/place/Texas+Roadhouse/@40.6542437,-111.9430149,17z/data=!3m1!4b1!4m6!3m5!1s0x87528bfb9df074cf:0x548b15973c8842cf!8m2!3d40.6542437!4d-111.9430149!16s%2Fg%2F1v_z9d27?authuser=0&hl=en&entry=ttu&g_ep=EgoyMDI1MDUxMS4wIKXMDSoASAFQAw%3D%3D\"\n============================================================"
    }
  },
  {
    "data": {
      "address": "326 S W Temple St, Salt Lake City, UT 84101, United States",
      "title": "Gracie's",
      "category": "Bar",
      "city": "Salt Lake City",
      "google_map_link": "https://www.google.com/maps/place/Gracie%27s/data=!4m7!3m6!1s0x8752f51acaa00a6d:0xcfe0aea885be7929!8m2!3d40.7620799!4d-111.8944319!16s%2Fm%2F0lfy4ws!19sChIJbQqgyhr1UocRKXm-haiu4M8?authuser=0&hl=en&rclk=1",
      "workhours": "",
      "latitude": "",
      "longitude": -111.8944319,
      "phone": "+1 801-819-7565",
      "avg_rating": "4.2",
      "rating_count": "3869",
      "state": "Utah",
      "website": "graciesslc.com"
    },
    "errors": {
      "latitude": "page.waitForURL: Timeout 10000ms exceeded.\n=========================== logs ===========================\nwaiting for navigation until \"load\"\n  navigated to \"https://www.google.com/maps/place/Gracie's/@40.7620799,-111.8944319,17z/data=!3m1!4b1!4m6!3m5!1s0x8752f51acaa00a6d:0xcfe0aea885be7929!8m2!3d40.7620799!4d-111.8944319!16s%2Fm%2F0lfy4ws?authuser=0&hl=en&entry=ttu&g_ep=EgoyMDI1MDUxMS4wIKXMDSoASAFQAw%3D%3D\"\n============================================================"
    }
  },
  {
    "data": {
      "address": "5284 Commerce Dr C174, Murray, UT 84107, United States",
      "title": "Hwa | Korean & Japanese Restaurant",
      "category": "Korean restaurant",
      "city": "Murray",
      "google_map_link": "https://www.google.com/maps/place/Hwa+%7C+Korean+%26+Japanese+Restaurant/data=!4m7!3m6!1s0x87528a2a3db66151:0xd77a883fbf39286c!8m2!3d40.6566055!4d-111.8993562!16s%2Fg%2F1hc5pz7xx!19sChIJUWG2PSqKUocRbCg5vz-Ietc?authuser=0&hl=en&rclk=1",
      "workhours": "Tuesday, 11 am to 3 pm, 5 to 9 pm; Wednesday, 11 am to 3 pm, 5 to 9 pm; Thursday, 11 am to 3 pm, 5 to 9 pm; Friday, 11 am to 3 pm, 5 to 9 pm; Saturday, 11 am to 3 pm, 5 to 9 pm; Sunday, Closed; Monday, 11 am to 3 pm, 5 to 9 pm. Hide open hours for the week",
      "latitude": "",
      "longitude": -111.8993562,
      "phone": "+1 801-266-2901",
      "avg_rating": "4.6",
      "rating_count": "642",
      "state": "Utah",
      "website": "hwaslc.com"
    },
    "errors": {
      "latitude": "page.waitForURL: Timeout 10000ms exceeded.\n=========================== logs ===========================\nwaiting for navigation until \"load\"\n  navigated to \"https://www.google.com/maps/place/Hwa+%7C+Korean+%26+Japanese+Restaurant/@40.6566055,-111.8993562,17z/data=!3m1!4b1!4m6!3m5!1s0x87528a2a3db66151:0xd77a883fbf39286c!8m2!3d40.6566055!4d-111.8993562!16s%2Fg%2F1hc5pz7xx?authuser=0&hl=en&entry=ttu&g_ep=EgoyMDI1MDUxMS4wIKXMDSoASAFQAw%3D%3D\"\n============================================================"
    }
  },
  {
    "data": {
      "address": "1728 Park Ave, Riverton, UT 84065, United States",
      "title": "Jim's Family Restaurant",
      "category": "Family restaurant",
      "city": "Riverton",
      "google_map_link": "https://www.google.com/maps/place/Jim%27s+Family+Restaurant/data=!4m7!3m6!1s0x87528690646bbeb5:0xa427659416c68700!8m2!3d40.5191264!4d-111.9393286!16s%2Fg%2F1td1dx2b!19sChIJtb5rZJCGUocRAIfGFpRlJ6Q?authuser=0&hl=en&rclk=1",
      "workhours": "Tuesday, 7 am to 9 pm; Wednesday, 7 am to 9 pm; Thursday, 7 am to 9 pm; Friday, 7 am to 9 pm; Saturday, 7 am to 9 pm; Sunday, 7 am to 4 pm; Monday, 7 am to 9 pm. Hide open hours for the week",
      "latitude": "",
      "longitude": -111.9393286,
      "phone": "+1 801-446-7670",
      "avg_rating": "4.4",
      "rating_count": "2069",
      "state": "Utah",
      "website": "jimsfamilyrestaurant.com"
    },
    "errors": {
      "latitude": "page.waitForURL: Timeout 10000ms exceeded.\n=========================== logs ===========================\nwaiting for navigation until \"load\"\n  navigated to \"https://www.google.com/maps/place/Jim's+Family+Restaurant/@40.5191264,-111.9393286,17z/data=!3m1!4b1!4m6!3m5!1s0x87528690646bbeb5:0xa427659416c68700!8m2!3d40.5191264!4d-111.9393286!16s%2Fg%2F1td1dx2b?authuser=0&hl=en&entry=ttu&g_ep=EgoyMDI1MDUxMS4wIKXMDSoASAFQAw%3D%3D\"\n============================================================"
    }
  },
  {
    "data": {
      "address": "601 W Main St, American Fork, UT 84003, United States",
      "title": "In-N-Out Burger",
      "category": "Hamburger restaurant",
      "city": "American Fork",
      "google_map_link": "https://www.google.com/maps/place/In-N-Out+Burger/data=!4m7!3m6!1s0x874d819eca1b74f1:0xe0d1574b6ec8a751!8m2!3d40.3758951!4d-111.8147053!16s%2Fg%2F1tfkwst2!19sChIJ8XQbyp6BTYcRUafIbktX0eA?authuser=0&hl=en&rclk=1",
      "workhours": "Tuesday, 10:30 am to 1 am; Wednesday, 10:30 am to 1 am; Thursday, 10:30 am to 1 am; Friday, 10:30 am to 1:30 am; Saturday, 10:30 am to 1:30 am; Sunday, 10:30 am to 1 am; Monday, 10:30 am to 1 am. Hide open hours for the week",
      "latitude": 40.3758951,
      "longitude": -111.8147053,
      "phone": "+1 800-786-1000",
      "avg_rating": "4.5",
      "rating_count": "6465",
      "state": "Utah",
      "website": "locations.in-n-out.com"
    },
    "errors": {}
  },
  {
    "data": {
      "address": "754 E S Temple St, Salt Lake City, UT 84102, United States",
      "title": "Sawadee (Utah) Thai Restaurant",
      "category": "Thai restaurant",
      "city": "Salt Lake City",
      "google_map_link": "https://www.google.com/maps/place/Sawadee+%28Utah%29+Thai+Restaurant/data=!4m7!3m6!1s0x8752f57079ee8649:0xa7ea2a41e6916bb7!8m2!3d40.7690835!4d-111.8692169!16s%2Fg%2F1wtbvcb2!19sChIJSYbueXD1UocRt2uR5kEq6qc?authuser=0&hl=en&rclk=1",
      "workhours": "Tuesday, 11 am to 3 pm, 5 to 9 pm; Wednesday, 11 am to 3 pm, 5 to 9 pm; Thursday, 11 am to 3 pm, 5 to 9 pm; Friday, 11 am to 3 pm, 5 to 9:30 pm; Saturday, 12 to 9:30 pm; Sunday, 4 to 9 pm; Monday, 11 am to 3 pm, 5 to 9 pm. Hide open hours for the week",
      "latitude": "",
      "longitude": -111.8692169,
      "phone": "+1 801-328-8424",
      "avg_rating": "4.4",
      "rating_count": "2581",
      "state": "Utah",
      "website": "sawadeethaiutah.com"
    },
    "errors": {
      "latitude": "page.waitForURL: Timeout 10000ms exceeded.\n=========================== logs ===========================\nwaiting for navigation until \"load\"\n  navigated to \"https://www.google.com/maps/place/Sawadee+(Utah)+Thai+Restaurant/@40.7690835,-111.8692169,17z/data=!3m1!4b1!4m6!3m5!1s0x8752f57079ee8649:0xa7ea2a41e6916bb7!8m2!3d40.7690835!4d-111.8692169!16s%2Fg%2F1wtbvcb2?authuser=0&hl=en&entry=ttu&g_ep=EgoyMDI1MDUxMS4wIKXMDSoASAFQAw%3D%3D\"\n============================================================"
    }
  },
  {
    "data": {
      "address": "190 S State St, Lindon, UT 84042, United States",
      "title": "Oteo",
      "category": "Mexican restaurant",
      "city": "Lindon",
      "google_map_link": "https://www.google.com/maps/place/Oteo/data=!4m7!3m6!1s0x874d85026024aa4d:0xf0ab4cdb6159c58f!8m2!3d40.3339021!4d-111.7141877!16s%2Fg%2F11bbx0cqx2!19sChIJTaokYAKFTYcRj8VZYdtMq_A?authuser=0&hl=en&rclk=1",
      "workhours": "Tuesday, 11 am to 3 pm, 5 to 9 pm; Wednesday, 11 am to 3 pm, 5 to 9 pm; Thursday, 11 am to 3 pm, 5 to 9 pm; Friday, 11 am to 3 pm, 5 to 9 pm; Saturday, 12 to 3 pm, 5 to 9 pm; Sunday, Closed; Monday, Closed. Hide open hours for the week",
      "latitude": 40.3339021,
      "longitude": -111.7141877,
      "phone": "+1 385-323-7990",
      "avg_rating": "4.5",
      "rating_count": "681",
      "state": "Utah",
      "website": "oteorestaurant.com"
    },
    "errors": {}
  },
  {
    "data": {
      "address": "722 State St, Salt Lake City, UT 84111, United States",
      "title": "Sapa",
      "category": "Japanese restaurant",
      "city": "Salt Lake City",
      "google_map_link": "https://www.google.com/maps/place/Sapa/data=!4m7!3m6!1s0x8752f53d8afc06f5:0x46fc57dcb792de60!8m2!3d40.7535541!4d-111.8884772!16s%2Fg%2F1vlzbvnf!19sChIJ9Qb8ij31UocRYN6St9xX_EY?authuser=0&hl=en&rclk=1",
      "workhours": "Tuesday, 11 am to 3 pm, 5 to 9 pm; Wednesday, 11 am to 3 pm, 5 to 9 pm; Thursday, 11 am to 3 pm, 5 to 9 pm; Friday, 11 am to 3 pm, 5 to 10 pm; Saturday, 5 to 10 pm; Sunday, Closed; Monday, 11 am to 3 pm, 5 to 9 pm. Hide open hours for the week",
      "latitude": 40.7535541,
      "longitude": -111.8884772,
      "phone": "+1 801-363-7272",
      "avg_rating": "4.6",
      "rating_count": "3302",
      "state": "Utah",
      "website": "sapabarandgrill.com"
    },
    "errors": {}
  },
  {
    "data": {
      "address": "7777 S State St, Midvale, UT 84047, United States",
      "title": "Del Barrio Cafe",
      "category": "Mexican restaurant",
      "city": "Midvale",
      "google_map_link": "https://www.google.com/maps/place/Del+Barrio+Cafe/data=!4m7!3m6!1s0x8752899e86dd2751:0x64010be35765154c!8m2!3d40.6099346!4d-111.8905072!16s%2Fg%2F11np8rshbf!19sChIJUSfdhp6JUocRTBVlV-MLAWQ?authuser=0&hl=en&rclk=1",
      "workhours": "Tuesday, 9 am to 9 pm; Wednesday, 9 am to 9 pm; Thursday, 9 am to 9 pm; Friday, 8:30 am to 10 pm; Saturday, 8:30 am to 10 pm; Sunday, Closed; Monday, 9 am to 9 pm. Hide open hours for the week",
      "latitude": "",
      "longitude": -111.8905072,
      "phone": "+1 801-902-9971",
      "avg_rating": "4.8",
      "rating_count": "1214",
      "state": "Utah",
      "website": "delbarriocafe.com"
    },
    "errors": {
      "latitude": "page.waitForURL: Timeout 10000ms exceeded.\n=========================== logs ===========================\nwaiting for navigation until \"load\"\n  navigated to \"https://www.google.com/maps/place/Del+Barrio+Cafe/@40.6099346,-111.8905072,17z/data=!3m1!4b1!4m6!3m5!1s0x8752899e86dd2751:0x64010be35765154c!8m2!3d40.6099346!4d-111.8905072!16s%2Fg%2F11np8rshbf?authuser=0&hl=en&entry=ttu&g_ep=EgoyMDI1MDUxMS4wIKXMDSoASAFQAw%3D%3D\"\n============================================================"
    }
  },
  {
    "data": {
      "address": "260 S 200 W, Salt Lake City, UT 84101, United States",
      "title": "Settebello Pizzeria Napoletana",
      "category": "Pizza restaurant",
      "city": "Salt Lake City",
      "google_map_link": "https://www.google.com/maps/place/Settebello+Pizzeria+Napoletana/data=!4m7!3m6!1s0x8752f5048d1cb17f:0xa6a2f46fbc4ca9e0!8m2!3d40.7634871!4d-111.8970853!16s%2Fg%2F1tn068by!19sChIJf7EcjQT1UocR4KlMvG_0oqY?authuser=0&hl=en&rclk=1",
      "workhours": "Tuesday, 11 am to 10 pm; Wednesday, 11 am to 10 pm; Thursday, 11 am to 10 pm; Friday, 11 am to 10 pm; Saturday, 11 am to 10 pm; Sunday, 12 to 9 pm; Monday, 11 am to 10 pm. Hide open hours for the week",
      "latitude": "",
      "longitude": -111.8970853,
      "phone": "+1 801-322-3556",
      "avg_rating": "4.5",
      "rating_count": "3718",
      "state": "Utah",
      "website": "settebello.net"
    },
    "errors": {
      "latitude": "page.waitForURL: Timeout 10000ms exceeded.\n=========================== logs ===========================\nwaiting for navigation until \"load\"\n  navigated to \"https://www.google.com/maps/place/Settebello+Pizzeria+Napoletana/@40.7634871,-111.8970853,17z/data=!3m1!4b1!4m6!3m5!1s0x8752f5048d1cb17f:0xa6a2f46fbc4ca9e0!8m2!3d40.7634871!4d-111.8970853!16s%2Fg%2F1tn068by?authuser=0&hl=en&entry=ttu&g_ep=EgoyMDI1MDUxMS4wIKXMDSoASAFQAw%3D%3D\"\n============================================================"
    }
  },
  {
    "data": {
      "address": "1072 Fort Union Blvd, Midvale, UT 84047, United States",
      "title": "Cubby's",
      "category": "American restaurant",
      "city": "Midvale",
      "google_map_link": "https://www.google.com/maps/place/Cubby%27s/data=!4m7!3m6!1s0x875289b7d38d2d1d:0x9b2cdd811eb46be6!8m2!3d40.6225021!4d-111.8617045!16s%2Fg%2F11lky6sxy6!19sChIJHS2N07eJUocR5mu0HoHdLJs?authuser=0&hl=en&rclk=1",
      "workhours": "",
      "latitude": 40.6225021,
      "longitude": -111.8617045,
      "phone": "+1 385-309-1500",
      "avg_rating": "4.0",
      "rating_count": "481",
      "state": "Utah",
      "website": "cubbys.co"
    },
    "errors": {}
  },
  {
    "data": {
      "address": "101 W Main St, Midway, UT 84049, United States",
      "title": "Café Galleria - Midway, Utah",
      "category": "Italian restaurant",
      "city": "Midway",
      "google_map_link": "https://www.google.com/maps/place/Caf%C3%A9+Galleria+-+Midway,+Utah/data=!4m7!3m6!1s0x87520aaccfa7ff99:0xd8db6a5c328657cc!8m2!3d40.5119444!4d-111.4747222!16s%2Fg%2F1td1vy59!19sChIJmf-nz6wKUocRzFeGMlxq29g?authuser=0&hl=en&rclk=1",
      "workhours": "",
      "latitude": 40.5119444,
      "longitude": -111.4747222,
      "phone": "+1 435-657-2002",
      "avg_rating": "4.0",
      "rating_count": "2287",
      "state": "Utah",
      "website": "thecafegalleria.com"
    },
    "errors": {}
  },
  {
    "data": {
      "address": "154 S Main St, Heber City, UT 84032, United States",
      "title": "Chick's Café",
      "category": "American restaurant",
      "city": "Heber",
      "google_map_link": "https://www.google.com/maps/place/Chick%27s+Caf%C3%A9/data=!4m7!3m6!1s0x874df5905b525b77:0xef3d77fcb26c7a0a!8m2!3d40.5056449!4d-111.4137228!16s%2Fg%2F1tgh80sy!19sChIJd1tSW5D1TYcRCnpssvx3Pe8?authuser=0&hl=en&rclk=1",
      "workhours": "Tuesday, 7 am to 9 pm; Wednesday, 7 am to 9 pm; Thursday, 7 am to 9 pm; Friday, 7 am to 9 pm; Saturday, 7 am to 9 pm; Sunday, 7 am to 9 pm; Monday, 7 am to 9 pm. Hide open hours for the week",
      "latitude": 40.5056449,
      "longitude": -111.4137228,
      "phone": "+1 435-654-1771",
      "avg_rating": "4.4",
      "rating_count": "1440",
      "state": "Utah",
      "website": "facebook.com"
    },
    "errors": {}
  },
  {
    "data": {
      "address": "8612 1300 E, Sandy, UT 84094, United States",
      "title": "Fratelli Ristorante",
      "category": "Italian restaurant",
      "city": "Sandy",
      "google_map_link": "https://www.google.com/maps/place/Fratelli+Ristorante/data=!4m7!3m6!1s0x875287fdfcad467f:0xff3a3aa24a9f0638!8m2!3d40.5948071!4d-111.8535327!16s%2Fg%2F1tjfbrbm!19sChIJf0at_P2HUocROAafSqI6Ov8?authuser=0&hl=en&rclk=1",
      "workhours": "Tuesday, 11 am to 9 pm; Wednesday, 11 am to 9 pm; Thursday, 11 am to 9 pm; Friday, 11 am to 9 pm; Saturday, 11 am to 9 pm; Sunday, Closed; Monday, 11 am to 9 pm. Hide open hours for the week",
      "latitude": 40.5948071,
      "longitude": -111.8535327,
      "phone": "+1 801-495-4550",
      "avg_rating": "4.2",
      "rating_count": "1106",
      "state": "Utah",
      "website": "fratelliutah.com"
    },
    "errors": {}
  }
]